,State,Agency name,Latitude,Longitude,2012 Crimes,2013 Crimes,2014 Crimes,2015 Crimes,2016 Crimes,Total Crimes
0,Alabama,Birmingham,52.48624299999999,-1.890401,0.0,0.0,0.0,3.0,7.0,10.0
1,Alabama,Fairfield,41.1408363,-73.2612615,0.0,0.0,1.0,0.0,0.0,1.0
2,Alabama,Florence,43.7695604,11.2558136,0.0,2.0,0.0,0.0,1.0,3.0
3,Alabama,Foley,30.4065868,-87.6835974,0.0,0.0,0.0,0.0,1.0,1.0
4,Alabama,Hoover,36.7484833,-95.916663,4.0,0.0,1.0,4.0,3.0,12.0
5,Alabama,Prattville,32.4640245,-86.4596966,0.0,2.0,4.0,1.0,0.0,7.0
6,Alabama,Sylacauga,33.1731716,-86.2516406,0.0,0.0,2.0,0.0,0.0,2.0
7,Alabama,Tuscaloosa,33.2098407,-87.56917349999999,0.0,1.0,0.0,0.0,0.0,1.0
8,Alaska,Anchorage,61.2180556,-149.9002778,5.0,8.0,5.0,4.0,4.0,26.0
9,Alaska,Juneau,58.3019444,-134.4197221,0.0,0.0,0.0,0.0,6.0,6.0
10,Alaska,Kotzebue,66.89833329999999,-162.5966666,0.0,0.0,0.0,1.0,0.0,1.0
11,Alaska,North Pole,64.7511111,-147.3494443,0.0,0.0,0.0,1.0,0.0,1.0
12,Alaska,Soldotna,60.4877778,-151.0583332,0.0,0.0,0.0,1.0,0.0,1.0
13,Alaska,Wasilla,61.5813889,-149.4394444,0.0,0.0,0.0,0.0,1.0,1.0
14,Arizona,Apache Junction,33.4150485,-111.5495777,1.0,1.0,1.0,2.0,2.0,7.0
15,Arizona,"Arizona State University, Main Campus",33.4242399,-111.9280527,1.0,0.0,0.0,2.0,1.0,4.0
16,Arizona,Avondale,33.4355977,-112.3496021,0.0,5.0,2.0,1.0,0.0,8.0
17,Arizona,Chandler,33.3061605,-111.8412502,0.0,0.0,1.0,1.0,2.0,4.0
18,Arizona,Coolidge,36.4058962,-97.8554106,1.0,0.0,0.0,0.0,0.0,1.0
19,Arizona,Cottonwood,38.37223640000001,-96.5427845,0.0,0.0,1.0,0.0,0.0,1.0
20,Arizona,Eagar,34.1111581,-109.291475,0.0,1.0,0.0,0.0,0.0,1.0
21,Arizona,El Mirage,33.6130942,-112.3246042,0.0,1.0,1.0,0.0,0.0,2.0
22,Arizona,Flagstaff,35.1982836,-111.651302,1.0,0.0,0.0,0.0,0.0,1.0
23,Arizona,Gilbert,33.3528264,-111.789027,2.0,1.0,2.0,3.0,1.0,9.0
24,Arizona,Glendale,34.1425078,-118.255075,4.0,3.0,5.0,5.0,1.0,18.0
25,Arizona,Goodyear,37.08346239999999,-94.49912529999999,0.0,0.0,1.0,0.0,0.0,1.0
26,Arizona,Holbrook,42.144846,-71.014118,0.0,0.0,0.0,0.0,0.0,0.0
27,Arizona,Kingman,35.189443,-114.0530065,0.0,0.0,0.0,0.0,0.0,0.0
28,Arizona,Maricopa,33.2917968,-112.4291464,2.0,1.0,0.0,0.0,0.0,3.0
29,Arizona,Mesa,33.4151843,-111.8314724,0.0,1.0,6.0,2.0,3.0,12.0
30,Arizona,Nogales,31.3403775,-110.9342532,0.0,0.0,0.0,0.0,0.0,0.0
31,Arizona,Northern Arizona University,35.1851895,-111.6547075,0.0,0.0,2.0,0.0,0.0,2.0
32,Arizona,Oro Valley,32.3909071,-110.966488,0.0,0.0,0.0,0.0,0.0,0.0
33,Arizona,Paradise Valley,33.5311541,-111.9426452,0.0,0.0,0.0,0.0,0.0,0.0
34,Arizona,Phoenix,33.4483771,-112.0740373,81.0,54.0,126.0,137.0,90.0,488.0
35,Arizona,Prescott,34.5400242,-112.4685025,0.0,1.0,0.0,1.0,0.0,2.0
36,Arizona,Prescott Valley,34.6100243,-112.315721,0.0,0.0,0.0,0.0,1.0,1.0
37,Arizona,Sahuarita,31.9575818,-110.955646,0.0,0.0,0.0,0.0,1.0,1.0
38,Arizona,Scottsdale,33.4941704,-111.9260519,1.0,1.0,3.0,1.0,1.0,7.0
39,Arizona,Show Low,34.2542084,-110.0298327,1.0,0.0,0.0,0.0,0.0,1.0
40,Arizona,St. Johns,40.7215967,-73.7946899,0.0,0.0,0.0,0.0,0.0,0.0
41,Arizona,Tempe,33.4255104,-111.9400054,1.0,1.0,1.0,0.0,0.0,3.0
42,Arizona,Tucson,32.2226066,-110.9747108,4.0,14.0,4.0,1.0,1.0,24.0
43,Arizona,University of Arizona,32.2318851,-110.9501094,1.0,2.0,0.0,0.0,0.0,3.0
44,Arizona,Willcox,32.2528519,-109.8320124,0.0,0.0,0.0,0.0,0.0,0.0
45,Arizona,Williams,34.9665388,-82.442609,0.0,0.0,0.0,0.0,0.0,0.0
46,Arizona,Yuma,32.6926512,-114.6276916,2.0,6.0,7.0,3.0,2.0,20.0
47,Arkansas,Benton,36.2661518,-94.479976,0.0,0.0,0.0,0.0,0.0,0.0
48,Arkansas,Bentonville,36.3728538,-94.2088172,0.0,1.0,0.0,0.0,0.0,1.0
49,Arkansas,Berryville,39.1517713,-77.9822193,0.0,1.0,0.0,0.0,0.0,1.0
50,Arkansas,Bryant,41.921192,-71.537882,1.0,0.0,0.0,1.0,0.0,2.0
51,Arkansas,Cabot,34.974532,-92.0165336,0.0,1.0,0.0,0.0,0.0,1.0
52,Arkansas,England,52.3555177,-1.1743197,0.0,1.0,0.0,0.0,0.0,1.0
53,Arkansas,Fairfield Bay,35.5942441,-92.27793240000001,0.0,1.0,0.0,0.0,0.0,1.0
54,Arkansas,Fayetteville,35.0526641,-78.87835849999999,1.0,0.0,0.0,0.0,0.0,1.0
55,Arkansas,Fort Smith,35.3859242,-94.39854749999999,0.0,1.0,3.0,0.0,3.0,7.0
56,Arkansas,Gurdon,33.9209365,-93.1540591,0.0,1.0,0.0,0.0,0.0,1.0
57,Arkansas,Jacksonville,30.3321838,-81.65565099999999,0.0,0.0,0.0,0.0,2.0,2.0
58,Arkansas,Jonesboro,35.84229670000001,-90.704279,1.0,0.0,0.0,0.0,0.0,1.0
59,Arkansas,Little Rock,34.7464809,-92.28959479999999,0.0,0.0,0.0,0.0,0.0,0.0
60,Arkansas,Marion,42.033279,-91.5968958,0.0,0.0,0.0,0.0,0.0,0.0
61,Arkansas,McGehee,29.932376,-90.08129,1.0,0.0,0.0,0.0,0.0,1.0
62,Arkansas,Newport,41.4901024,-71.3128285,1.0,0.0,0.0,0.0,0.0,1.0
63,Arkansas,North Little Rock,34.769536,-92.2670941,0.0,1.0,0.0,0.0,0.0,1.0
64,Arkansas,Ola,33.4462639,-84.0440058,1.0,0.0,0.0,0.0,0.0,1.0
65,Arkansas,Paragould,36.0584021,-90.4973286,1.0,0.0,0.0,0.0,0.0,1.0
66,Arkansas,Pine Bluff,34.2284312,-92.00319549999999,0.0,0.0,0.0,0.0,0.0,0.0
67,Arkansas,Rogers,36.3355667,-94.1496209,0.0,1.0,0.0,0.0,0.0,1.0
68,Arkansas,Sherwood,53.205875,-1.0860901,2.0,1.0,0.0,0.0,0.0,3.0
69,Arkansas,Springdale,36.18674420000001,-94.1288141,2.0,0.0,0.0,0.0,0.0,2.0
70,Arkansas,"University of Arkansas, Fayetteville",36.0678324,-94.17365509999999,0.0,0.0,1.0,0.0,0.0,1.0
71,Arkansas,"University of Arkansas, Pine Bluff",34.2468716,-92.0213392,0.0,0.0,0.0,0.0,0.0,0.0
72,California,Adelanto,34.5827699,-117.409215,1.0,2.0,2.0,0.0,1.0,6.0
73,California,Agoura Hills,34.1533395,-118.7616764,1.0,2.0,0.0,0.0,0.0,3.0
74,California,Alameda,37.7652065,-122.2416355,0.0,0.0,3.0,1.0,3.0,7.0
75,California,Alhambra,34.095287,-118.1270146,0.0,1.0,1.0,0.0,1.0,3.0
76,California,Aliso Viejo,33.5684605,-117.7262981,0.0,0.0,0.0,0.0,0.0,0.0
77,California,Allan Hancock College,34.9446133,-120.4189337,3.0,0.0,0.0,0.0,0.0,3.0
78,California,Anaheim,33.8365932,-117.9143012,0.0,0.0,0.0,0.0,1.0,1.0
79,California,Antioch,38.0049214,-121.805789,2.0,2.0,2.0,5.0,2.0,13.0
80,California,Apple Valley,34.5008311,-117.1858759,2.0,0.0,2.0,0.0,0.0,4.0
81,California,Arcadia,37.5557825,22.3337769,0.0,1.0,0.0,0.0,0.0,1.0
82,California,Arcata,40.8665166,-124.0828396,1.0,0.0,1.0,0.0,2.0,4.0
83,California,Arvin,35.2017986,-118.833105,0.0,0.0,0.0,0.0,0.0,0.0
84,California,Atascadero,35.4894169,-120.6707255,0.0,2.0,0.0,0.0,0.0,2.0
85,California,Atwater,37.3477174,-120.609084,0.0,1.0,0.0,0.0,0.0,1.0
86,California,Auburn,32.6098566,-85.48078249999999,0.0,1.0,0.0,0.0,0.0,1.0
87,California,Azusa,34.1336186,-117.9075627,3.0,1.0,0.0,2.0,2.0,8.0
88,California,Bakersfield,35.3732921,-119.0187125,2.0,2.0,5.0,1.0,8.0,18.0
89,California,Baldwin Park,34.0852868,-117.9608978,0.0,0.0,0.0,0.0,0.0,0.0
90,California,Banning,33.9255713,-116.8764103,0.0,1.0,0.0,1.0,0.0,2.0
91,California,Barstow,34.8957957,-117.0172826,0.0,0.0,1.0,0.0,0.0,1.0
92,California,Bell Gardens,33.9652918,-118.1514588,0.0,0.0,0.0,2.0,0.0,2.0
93,California,Bellflower,33.8816818,-118.1170117,0.0,0.0,0.0,1.0,0.0,1.0
94,California,Benicia,38.049365,-122.1585777,0.0,0.0,0.0,0.0,0.0,0.0
95,California,Berkeley,37.8715926,-122.272747,5.0,8.0,1.0,2.0,9.0,25.0
96,California,Berkeley,37.8715926,-122.272747,5.0,8.0,1.0,2.0,1.0,17.0
97,California,Berkeley,37.8715926,-122.272747,5.0,8.0,1.0,0.0,9.0,23.0
98,California,Berkeley,37.8715926,-122.272747,5.0,8.0,1.0,0.0,1.0,15.0
99,California,Berkeley,37.8715926,-122.272747,5.0,8.0,2.0,2.0,9.0,26.0
100,California,Berkeley,37.8715926,-122.272747,5.0,8.0,2.0,2.0,1.0,18.0
101,California,Berkeley,37.8715926,-122.272747,5.0,8.0,2.0,0.0,9.0,24.0
102,California,Berkeley,37.8715926,-122.272747,5.0,8.0,2.0,0.0,1.0,16.0
103,California,Berkeley,37.8715926,-122.272747,5.0,4.0,1.0,2.0,9.0,21.0
104,California,Berkeley,37.8715926,-122.272747,5.0,4.0,1.0,2.0,1.0,13.0
105,California,Berkeley,37.8715926,-122.272747,5.0,4.0,1.0,0.0,9.0,19.0
106,California,Berkeley,37.8715926,-122.272747,5.0,4.0,1.0,0.0,1.0,11.0
107,California,Berkeley,37.8715926,-122.272747,5.0,4.0,2.0,2.0,9.0,22.0
108,California,Berkeley,37.8715926,-122.272747,5.0,4.0,2.0,2.0,1.0,14.0
109,California,Berkeley,37.8715926,-122.272747,5.0,4.0,2.0,0.0,9.0,20.0
110,California,Berkeley,37.8715926,-122.272747,5.0,4.0,2.0,0.0,1.0,12.0
111,California,Berkeley,37.8715926,-122.272747,3.0,8.0,1.0,2.0,9.0,23.0
112,California,Berkeley,37.8715926,-122.272747,3.0,8.0,1.0,2.0,1.0,15.0
113,California,Berkeley,37.8715926,-122.272747,3.0,8.0,1.0,0.0,9.0,21.0
114,California,Berkeley,37.8715926,-122.272747,3.0,8.0,1.0,0.0,1.0,13.0
115,California,Berkeley,37.8715926,-122.272747,3.0,8.0,2.0,2.0,9.0,24.0
116,California,Berkeley,37.8715926,-122.272747,3.0,8.0,2.0,2.0,1.0,16.0
117,California,Berkeley,37.8715926,-122.272747,3.0,8.0,2.0,0.0,9.0,22.0
118,California,Berkeley,37.8715926,-122.272747,3.0,8.0,2.0,0.0,1.0,14.0
119,California,Berkeley,37.8715926,-122.272747,3.0,4.0,1.0,2.0,9.0,19.0
120,California,Berkeley,37.8715926,-122.272747,3.0,4.0,1.0,2.0,1.0,11.0
121,California,Berkeley,37.8715926,-122.272747,3.0,4.0,1.0,0.0,9.0,17.0
122,California,Berkeley,37.8715926,-122.272747,3.0,4.0,1.0,0.0,1.0,9.0
123,California,Berkeley,37.8715926,-122.272747,3.0,4.0,2.0,2.0,9.0,20.0
124,California,Berkeley,37.8715926,-122.272747,3.0,4.0,2.0,2.0,1.0,12.0
125,California,Berkeley,37.8715926,-122.272747,3.0,4.0,2.0,0.0,9.0,18.0
126,California,Berkeley,37.8715926,-122.272747,3.0,4.0,2.0,0.0,1.0,10.0
127,California,Beverly Hills,34.0736204,-118.4003563,2.0,0.0,0.0,0.0,1.0,3.0
128,California,Brea,33.916475,-117.9002918,0.0,0.0,1.0,0.0,0.0,1.0
129,California,Brentwood,34.0521011,-118.4732464,1.0,4.0,2.0,0.0,0.0,7.0
130,California,Brisbane,-27.4697707,153.0251235,0.0,0.0,0.0,1.0,0.0,1.0
131,California,Buellton,34.613597,-120.1926505,0.0,0.0,0.0,0.0,0.0,0.0
132,California,Buena Park,33.8674044,-117.9981387,2.0,1.0,1.0,0.0,2.0,6.0
133,California,Burbank,34.1808392,-118.3089661,5.0,2.0,0.0,1.0,1.0,9.0
134,California,Calabasas,34.1367208,-118.6614809,0.0,0.0,0.0,1.0,3.0,4.0
135,California,"California State Polytechnic University, Pomona",34.0575651,-117.820741,0.0,0.0,0.0,0.0,0.0,0.0
136,California,"California State Polytechnic University, San Luis Obispo",35.3050053,-120.6624942,0.0,0.0,1.0,1.0,1.0,3.0
137,California,Calimesa,34.0039039,-117.0619755,0.0,0.0,0.0,0.0,0.0,0.0
138,California,Camarillo,34.2163937,-119.0376023,0.0,2.0,2.0,1.0,1.0,6.0
139,California,Campbell,35.4083372,-78.7394297,1.0,1.0,0.0,0.0,0.0,2.0
140,California,Capitola,36.9752283,-121.953293,0.0,0.0,0.0,0.0,1.0,1.0
141,California,Carlsbad,33.1580933,-117.3505939,0.0,2.0,0.0,0.0,0.0,2.0
142,California,Carmel,36.5552386,-121.9232879,0.0,0.0,0.0,0.0,0.0,0.0
143,California,Carson,33.8316745,-118.281693,3.0,1.0,1.0,3.0,0.0,8.0
144,California,Central Marin,38.083403,-122.7633036,0.0,0.0,1.0,0.0,2.0,3.0
145,California,Cerritos,33.8583483,-118.0647871,1.0,3.0,0.0,0.0,0.0,4.0
146,California,Chico,39.729575,-121.8473287,3.0,1.0,2.0,0.0,3.0,9.0
147,California,Chino,34.0122346,-117.688944,1.0,5.0,3.0,0.0,2.0,11.0
148,California,Chino Hills,33.9898188,-117.7325848,1.0,0.0,1.0,0.0,1.0,3.0
149,California,Chula Vista,32.6400541,-117.0841955,2.0,3.0,2.0,1.0,1.0,9.0
150,California,Citrus Heights,38.7071247,-121.2810611,0.0,1.0,0.0,1.0,1.0,3.0
151,California,City of Angels,38.0763597,-120.5493088,0.0,0.0,0.0,0.0,0.0,0.0
152,California,Claremont,34.0966764,-117.7197785,1.0,1.0,1.0,1.0,7.0,11.0
153,California,Clayton,35.650711,-78.4563914,0.0,0.0,0.0,0.0,0.0,0.0
154,California,Clearlake,38.9582307,-122.6263728,3.0,1.0,1.0,5.0,1.0,11.0
155,California,Clovis,36.8252277,-119.7029194,0.0,1.0,0.0,1.0,1.0,3.0
156,California,Coachella,33.6783631,-116.2371828,0.0,0.0,0.0,0.0,0.0,0.0
157,California,Coalinga,36.139678,-120.3601496,0.0,0.0,1.0,0.0,0.0,1.0
158,California,Colton,34.0739016,-117.3136547,1.0,1.0,0.0,0.0,0.0,2.0
159,California,Colusa,39.2143343,-122.0094175,0.0,0.0,1.0,0.0,0.0,1.0
160,California,Commerce,36.7522993,-95.9788964,0.0,0.0,0.0,0.0,0.0,0.0
161,California,Compton,33.8958492,-118.2200712,1.0,1.0,3.0,1.0,0.0,6.0
162,California,Concord,42.4603719,-71.3489484,0.0,1.0,0.0,3.0,1.0,5.0
163,California,Contra Costa,37.8534093,-121.9017954,1.0,0.0,0.0,0.0,0.0,1.0
164,California,Corcoran,36.098007,-119.5604015,0.0,1.0,0.0,0.0,0.0,1.0
165,California,Corona,33.8752935,-117.5664384,2.0,1.0,0.0,0.0,0.0,3.0
166,California,Coronado,32.6858853,-117.1830891,0.0,0.0,0.0,0.0,0.0,0.0
167,California,Costa Mesa,33.6412156,-117.9188221,0.0,1.0,0.0,0.0,0.0,1.0
168,California,Covina,40.7422553,-73.9834482,3.0,0.0,0.0,1.0,0.0,4.0
169,California,Cudahy,42.959738,-87.861471,0.0,0.0,0.0,0.0,0.0,0.0
170,California,Culver City,34.0211224,-118.3964665,0.0,0.0,0.0,0.0,0.0,0.0
171,California,Cupertino,37.3229978,-122.0321823,1.0,0.0,0.0,0.0,2.0,3.0
172,California,Cypress,37.09024,-95.712891,1.0,1.0,0.0,1.0,0.0,3.0
173,California,Daly City,37.6879241,-122.4702079,1.0,0.0,2.0,1.0,0.0,4.0
174,California,Dana Point,33.4672256,-117.6981014,1.0,0.0,2.0,0.0,0.0,3.0
175,California,Danville,37.8215929,-121.9999606,0.0,0.0,0.0,0.0,0.0,0.0
176,California,Davis,38.5449065,-121.7405167,4.0,3.0,1.0,2.0,5.0,15.0
177,California,Davis,38.5449065,-121.7405167,4.0,3.0,1.0,2.0,1.0,11.0
178,California,Davis,38.5449065,-121.7405167,4.0,3.0,1.0,2.0,5.0,15.0
179,California,Davis,38.5449065,-121.7405167,4.0,3.0,1.0,2.0,1.0,11.0
180,California,Davis,38.5449065,-121.7405167,4.0,3.0,2.0,2.0,5.0,16.0
181,California,Davis,38.5449065,-121.7405167,4.0,3.0,2.0,2.0,1.0,12.0
182,California,Davis,38.5449065,-121.7405167,4.0,3.0,2.0,2.0,5.0,16.0
183,California,Davis,38.5449065,-121.7405167,4.0,3.0,2.0,2.0,1.0,12.0
184,California,Davis,38.5449065,-121.7405167,4.0,2.0,1.0,2.0,5.0,14.0
185,California,Davis,38.5449065,-121.7405167,4.0,2.0,1.0,2.0,1.0,10.0
186,California,Davis,38.5449065,-121.7405167,4.0,2.0,1.0,2.0,5.0,14.0
187,California,Davis,38.5449065,-121.7405167,4.0,2.0,1.0,2.0,1.0,10.0
188,California,Davis,38.5449065,-121.7405167,4.0,2.0,2.0,2.0,5.0,15.0
189,California,Davis,38.5449065,-121.7405167,4.0,2.0,2.0,2.0,1.0,11.0
190,California,Davis,38.5449065,-121.7405167,4.0,2.0,2.0,2.0,5.0,15.0
191,California,Davis,38.5449065,-121.7405167,4.0,2.0,2.0,2.0,1.0,11.0
192,California,Desert Hot Springs,33.961124,-116.5016784,0.0,0.0,0.0,0.0,0.0,0.0
193,California,Diamond Bar,34.0286226,-117.8103367,1.0,0.0,0.0,2.0,0.0,3.0
194,California,Dominguez Hills,33.8633706,-118.2552809,1.0,1.0,0.0,1.0,4.0,7.0
195,California,Downey,33.9401088,-118.1331593,1.0,0.0,0.0,0.0,1.0,2.0
196,California,Duarte,34.1394513,-117.9772873,0.0,1.0,0.0,0.0,0.0,1.0
197,California,Dublin,53.3498053,-6.2603097,0.0,0.0,2.0,0.0,0.0,2.0
198,California,East Bay,30.52422219999999,-87.903146,0.0,0.0,0.0,0.0,0.0,0.0
199,California,East Palo Alto,37.4688273,-122.1410751,0.0,0.0,0.0,0.0,0.0,0.0
200,California,Eastvale,33.952463,-117.5848025,3.0,0.0,0.0,0.0,0.0,3.0
201,California,El Cajon,32.7947731,-116.9625269,1.0,2.0,0.0,0.0,0.0,3.0
202,California,El Cerrito,37.9161326,-122.310765,0.0,4.0,8.0,2.0,0.0,14.0
203,California,El Monte,34.0686206,-118.0275667,3.0,5.0,4.0,2.0,0.0,14.0
204,California,El Segundo,33.9191799,-118.4164652,0.0,0.0,0.0,1.0,2.0,3.0
205,California,Elk Grove,38.4087993,-121.3716178,0.0,1.0,0.0,2.0,1.0,4.0
206,California,Emeryville,37.831316,-122.2852473,0.0,1.0,0.0,0.0,0.0,1.0
207,California,Encinitas,33.0369867,-117.2919818,1.0,3.0,0.0,0.0,1.0,5.0
208,California,Escondido,33.1192068,-117.086421,10.0,6.0,3.0,6.0,1.0,26.0
209,California,Eureka,40.8020712,-124.1636729,2.0,1.0,1.0,2.0,0.0,6.0
210,California,Fairfield,41.1408363,-73.2612615,0.0,3.0,1.0,0.0,1.0,5.0
211,California,Farmersville,33.1634493,-96.3599821,0.0,0.0,0.0,0.0,0.0,0.0
212,California,Firebaugh,36.8588376,-120.4560072,0.0,0.0,0.0,1.0,0.0,1.0
213,California,Folsom,38.6779591,-121.1760583,0.0,0.0,0.0,2.0,0.0,2.0
214,California,Fontana,34.0922335,-117.435048,0.0,1.0,3.0,0.0,0.0,4.0
215,California,Foothill-De Anza College,37.3620489,-122.1271421,0.0,0.0,0.0,0.0,0.0,0.0
216,California,Fort Bragg,35.1414552,-79.0079949,0.0,0.0,0.0,0.0,1.0,1.0
217,California,Foster City,37.5585465,-122.2710788,0.0,1.0,0.0,0.0,0.0,1.0
218,California,Fountain Valley,33.7090212,-117.9544069,0.0,0.0,0.0,0.0,0.0,0.0
219,California,Fowler,36.1146323,-95.9007307,1.0,0.0,0.0,0.0,0.0,1.0
220,California,Fremont,37.5482697,-121.9885719,0.0,0.0,0.0,2.0,1.0,3.0
221,California,Fresno,36.7377981,-119.7871247,6.0,6.0,8.0,7.0,7.0,34.0
222,California,Fullerton,33.8703645,-117.9242123,0.0,0.0,0.0,1.0,1.0,2.0
223,California,Fullerton,33.8703645,-117.9242123,0.0,0.0,0.0,1.0,0.0,1.0
224,California,Fullerton,33.8703645,-117.9242123,0.0,0.0,0.0,0.0,1.0,1.0
225,California,Fullerton,33.8703645,-117.9242123,0.0,0.0,0.0,0.0,0.0,0.0
226,California,Fullerton,33.8703645,-117.9242123,1.0,0.0,0.0,1.0,1.0,3.0
227,California,Fullerton,33.8703645,-117.9242123,1.0,0.0,0.0,1.0,0.0,2.0
228,California,Fullerton,33.8703645,-117.9242123,1.0,0.0,0.0,0.0,1.0,2.0
229,California,Fullerton,33.8703645,-117.9242123,1.0,0.0,0.0,0.0,0.0,1.0
230,California,Galt,38.2546373,-121.2999485,0.0,1.0,1.0,2.0,0.0,4.0
231,California,Garden Grove,33.7742692,-117.9379952,0.0,4.0,0.0,1.0,1.0,6.0
232,California,Gardena,33.8883487,-118.3089624,1.0,0.0,1.0,0.0,0.0,2.0
233,California,Gilroy,37.0057816,-121.5682751,1.0,0.0,0.0,0.0,0.0,1.0
234,California,Glendale,34.1425078,-118.255075,1.0,1.0,0.0,1.0,1.0,4.0
235,California,Glendora,34.1361187,-117.865339,0.0,1.0,0.0,1.0,0.0,2.0
236,California,Goleta,34.4358294,-119.8276389,0.0,0.0,1.0,1.0,0.0,2.0
237,California,Grass Valley,39.2190608,-121.0610606,0.0,0.0,1.0,0.0,0.0,1.0
238,California,Greenfield,42.9614039,-88.0125865,1.0,0.0,0.0,0.0,0.0,1.0
239,California,Gridley,39.3637773,-121.6935833,0.0,1.0,0.0,1.0,0.0,2.0
240,California,Grover Beach,35.1216424,-120.6212821,0.0,0.0,1.0,0.0,0.0,1.0
241,California,Hanford,46.5506839,-119.4889741,1.0,1.0,0.0,1.0,0.0,3.0
242,California,Hawaiian Gardens,33.8314045,-118.0728424,2.0,4.0,1.0,2.0,0.0,9.0
243,California,Hawthorne,33.9164032,-118.3525748,2.0,0.0,0.0,3.0,0.0,5.0
244,California,Hayward,37.6688205,-122.0807964,2.0,0.0,2.0,3.0,1.0,8.0
245,California,Healdsburg,38.6104658,-122.8691609,0.0,1.0,0.0,0.0,0.0,1.0
246,California,Hemet,33.7475203,-116.9719684,2.0,0.0,1.0,2.0,0.0,5.0
247,California,Hercules,38.0171441,-122.2885808,0.0,1.0,1.0,0.0,0.0,2.0
248,California,Hermosa Beach,33.8622366,-118.3995194,1.0,0.0,0.0,1.0,0.0,2.0
249,California,Hesperia,34.4263886,-117.3008784,1.0,0.0,1.0,0.0,0.0,2.0
250,California,Highland,34.1283442,-117.2086513,1.0,0.0,2.0,0.0,1.0,4.0
251,California,Hollister,36.06309600000001,-95.881996,0.0,0.0,0.0,0.0,0.0,0.0
252,California,Holtville,32.8111612,-115.3802643,0.0,0.0,0.0,0.0,0.0,0.0
253,California,Hughson,37.6027244,-120.8664811,0.0,0.0,0.0,0.0,0.0,0.0
254,California,Humboldt State University,40.8752748,-124.077821,0.0,0.0,0.0,1.0,1.0,2.0
255,California,Huntington Beach,33.6594835,-117.9988026,6.0,0.0,2.0,0.0,3.0,11.0
256,California,Huntington Park,33.9816812,-118.2250725,0.0,0.0,0.0,3.0,0.0,3.0
257,California,Imperial,45.5210579,-122.678322,0.0,0.0,0.0,1.0,0.0,1.0
258,California,Imperial Beach,32.5839444,-117.1130849,0.0,2.0,0.0,1.0,0.0,3.0
259,California,Indio,33.7205771,-116.2155619,0.0,0.0,0.0,1.0,0.0,1.0
260,California,Industry,37.0360732,-95.6514459,0.0,0.0,0.0,1.0,0.0,1.0
261,California,Inglewood,33.9616801,-118.3531311,0.0,0.0,0.0,0.0,0.0,0.0
262,California,Ione,38.3526912,-120.9327177,0.0,0.0,1.0,0.0,0.0,1.0
263,California,Irvine,33.6845673,-117.8265049,1.0,0.0,3.0,1.0,2.0,7.0
264,California,Irvine,33.6845673,-117.8265049,1.0,0.0,3.0,1.0,2.0,7.0
265,California,Jurupa Valley,33.9971974,-117.4854802,0.0,0.0,0.0,1.0,1.0,2.0
266,California,Kerman,30.2839379,57.0833628,0.0,0.0,0.0,0.0,0.0,0.0
267,California,Kingsburg,36.5138398,-119.5540175,0.0,0.0,0.0,0.0,1.0,1.0
268,California,La Habra,33.9318591,-117.946137,0.0,0.0,0.0,0.0,1.0,1.0
269,California,La Mesa,32.7376001,-101.950992,1.0,0.0,0.0,0.0,2.0,3.0
270,California,La Mirada,33.9172357,-118.0120086,1.0,1.0,0.0,1.0,0.0,3.0
271,California,La Puente,34.0200114,-117.9495083,0.0,0.0,1.0,0.0,0.0,1.0
272,California,La Quinta,29.9508988,-90.06914839999999,0.0,1.0,2.0,0.0,0.0,3.0
273,California,Laguna Beach,33.5427189,-117.7853568,0.0,0.0,0.0,1.0,1.0,2.0
274,California,Laguna Hills,33.5916433,-117.6986604,1.0,0.0,0.0,0.0,0.0,1.0
275,California,Laguna Niguel,33.5236744,-117.7149438,0.0,0.0,0.0,0.0,0.0,0.0
276,California,Lake Elsinore,33.6680772,-117.3272615,0.0,0.0,0.0,0.0,1.0,1.0
277,California,Lake Forest,42.2586342,-87.840625,1.0,2.0,1.0,4.0,0.0,8.0
278,California,Lakewood,33.8536269,-118.1339563,3.0,2.0,0.0,2.0,3.0,10.0
279,California,Lancaster,40.0378755,-76.3055144,5.0,4.0,2.0,3.0,5.0,19.0
280,California,Lawndale,33.887237,-118.3525744,1.0,0.0,0.0,0.0,0.0,1.0
281,California,Lemon Grove,32.7425516,-117.0314172,1.0,1.0,0.0,0.0,0.0,2.0
282,California,Lemoore,36.3007835,-119.7829107,0.0,1.0,0.0,1.0,0.0,2.0
283,California,Livermore,37.6818745,-121.7680088,2.0,1.0,2.0,0.0,0.0,5.0
284,California,Livingston,40.7862871,-74.3300842,0.0,0.0,0.0,0.0,0.0,0.0
285,California,Lodi,38.1341477,-121.2722194,2.0,2.0,0.0,1.0,0.0,5.0
286,California,Loma Linda,34.0483474,-117.2611527,0.0,0.0,0.0,0.0,1.0,1.0
287,California,Lomita,33.7922392,-118.3150722,2.0,1.0,0.0,1.0,0.0,4.0
288,California,Long Beach,33.7700504,-118.1937395,1.0,3.0,4.0,6.0,2.0,16.0
289,California,Long Beach,33.7700504,-118.1937395,1.0,3.0,4.0,6.0,2.0,16.0
290,California,Long Beach,33.7700504,-118.1937395,1.0,1.0,4.0,6.0,2.0,14.0
291,California,Long Beach,33.7700504,-118.1937395,1.0,1.0,4.0,6.0,2.0,14.0
292,California,Long Beach,33.7700504,-118.1937395,1.0,3.0,4.0,6.0,2.0,16.0
293,California,Long Beach,33.7700504,-118.1937395,1.0,3.0,4.0,6.0,2.0,16.0
294,California,Long Beach,33.7700504,-118.1937395,1.0,1.0,4.0,6.0,2.0,14.0
295,California,Long Beach,33.7700504,-118.1937395,1.0,1.0,4.0,6.0,2.0,14.0
296,California,Los Alamitos,33.8032009,-118.0718894,0.0,1.0,0.0,1.0,0.0,2.0
297,California,Los Angeles,34.0522342,-118.2436849,58.0,50.0,58.0,92.0,112.0,370.0
298,California,Los Angeles,34.0522342,-118.2436849,58.0,50.0,58.0,92.0,2.0,260.0
299,California,Los Angeles,34.0522342,-118.2436849,58.0,50.0,58.0,5.0,112.0,283.0
300,California,Los Angeles,34.0522342,-118.2436849,58.0,50.0,58.0,5.0,2.0,173.0
301,California,Los Angeles,34.0522342,-118.2436849,1.0,50.0,58.0,92.0,112.0,313.0
302,California,Los Angeles,34.0522342,-118.2436849,1.0,50.0,58.0,92.0,2.0,203.0
303,California,Los Angeles,34.0522342,-118.2436849,1.0,50.0,58.0,5.0,112.0,226.0
304,California,Los Angeles,34.0522342,-118.2436849,1.0,50.0,58.0,5.0,2.0,116.0
305,California,Los Gatos,37.2358078,-121.9623751,0.0,2.0,3.0,1.0,0.0,6.0
306,California,Lynwood,33.930293,-118.2114603,1.0,1.0,1.0,0.0,0.0,3.0
307,California,Malibu,34.0259216,-118.7797571,0.0,1.0,1.0,0.0,2.0,4.0
308,California,Mammoth Lakes,37.648546,-118.972079,1.0,0.0,2.0,0.0,1.0,4.0
309,California,Manhattan Beach,33.8847361,-118.4109089,0.0,1.0,0.0,1.0,0.0,2.0
310,California,Manteca,37.7974273,-121.2160526,0.0,1.0,0.0,0.0,5.0,6.0
311,California,Marin Community College,37.955595,-122.5496,1.0,0.0,0.0,0.0,0.0,1.0
312,California,Marina,29.9006367,-98.23309049999999,0.0,0.0,2.0,0.0,0.0,2.0
313,California,Marysville,40.2364486,-83.3671432,1.0,0.0,0.0,1.0,0.0,2.0
314,California,Menifee,33.6971468,-117.185294,0.0,0.0,1.0,1.0,0.0,2.0
315,California,Merced,37.3021632,-120.4829677,0.0,0.0,0.0,1.0,0.0,1.0
316,California,Milpitas,37.4323341,-121.8995741,1.0,1.0,0.0,0.0,0.0,2.0
317,California,Mission Viejo,33.5968913,-117.6581562,0.0,0.0,0.0,1.0,0.0,1.0
318,California,Modesto,37.63909719999999,-120.9968782,3.0,1.0,3.0,4.0,6.0,17.0
319,California,Monrovia,6.2907432,-10.7605239,1.0,0.0,1.0,0.0,0.0,2.0
320,California,Montclair,40.8259007,-74.2090053,1.0,2.0,3.0,0.0,1.0,7.0
321,California,Montebello,34.0165053,-118.1137535,0.0,0.0,0.0,0.0,0.0,0.0
322,California,Monterey,36.6002378,-121.8946761,0.0,1.0,1.0,0.0,1.0,3.0
323,California,Monterey Park,34.0625106,-118.1228476,1.0,0.0,1.0,2.0,0.0,4.0
324,California,Moorpark,34.285558,-118.8820414,0.0,0.0,1.0,0.0,0.0,1.0
325,California,Moreno Valley,33.9424658,-117.2296717,1.0,1.0,4.0,0.0,0.0,6.0
326,California,Morgan Hill,37.1305012,-121.6543901,0.0,0.0,0.0,0.0,0.0,0.0
327,California,Mountain View,37.3860517,-122.0838511,0.0,0.0,0.0,0.0,0.0,0.0
328,California,Murrieta,33.5539143,-117.2139232,0.0,3.0,0.0,0.0,0.0,3.0
329,California,Napa,36.1614216,-95.904057,1.0,0.0,0.0,1.0,0.0,2.0
330,California,National City,32.6781085,-117.0991967,2.0,2.0,0.0,1.0,1.0,6.0
331,California,Newark,40.735657,-74.1723667,1.0,3.0,2.0,0.0,1.0,7.0
332,California,Newport Beach,33.6188829,-117.9298493,1.0,0.0,0.0,1.0,0.0,2.0
333,California,Norco,33.9311257,-117.548661,0.0,0.0,1.0,0.0,2.0,3.0
334,California,Northridge,34.2381251,-118.530123,3.0,0.0,0.0,1.0,0.0,4.0
335,California,Norwalk,41.11774399999999,-73.4081575,1.0,4.0,11.0,3.0,1.0,20.0
336,California,Novato,38.1074198,-122.5697032,2.0,0.0,0.0,0.0,1.0,3.0
337,California,Oakland,37.8043637,-122.2711137,5.0,6.0,7.0,6.0,3.0,27.0
338,California,Oceanside,33.1958696,-117.3794834,8.0,6.0,4.0,1.0,2.0,21.0
339,California,Ontario,51.253775,-85.323214,2.0,1.0,0.0,0.0,0.0,3.0
340,California,Orange,-33.283333,149.1,1.0,1.0,1.0,1.0,1.0,5.0
341,California,Orland,39.7473803,-122.1963748,1.0,0.0,0.0,0.0,0.0,1.0
342,California,Oroville,39.5137752,-121.556359,0.0,1.0,0.0,0.0,0.0,1.0
343,California,Oxnard,34.1975048,-119.1770516,3.0,0.0,3.0,7.0,4.0,17.0
344,California,Pacific Grove,36.6177374,-121.9166215,0.0,0.0,0.0,0.0,1.0,1.0
345,California,Pacifica,37.6138253,-122.4869194,1.0,0.0,0.0,0.0,0.0,1.0
346,California,Palm Desert,33.7222445,-116.3744556,1.0,0.0,0.0,0.0,0.0,1.0
347,California,Palm Springs,33.8302961,-116.5452921,1.0,3.0,0.0,0.0,3.0,7.0
348,California,Palmdale,34.5794343,-118.1164613,13.0,4.0,3.0,2.0,6.0,28.0
349,California,Palo Alto,37.4418834,-122.1430195,2.0,1.0,2.0,3.0,3.0,11.0
350,California,Paradise,39.7596061,-121.6219177,1.0,0.0,0.0,0.0,1.0,2.0
351,California,Paramount,47.613257,-122.331342,4.0,2.0,0.0,2.0,0.0,8.0
352,California,Parlier,36.6116174,-119.5270734,0.0,0.0,0.0,0.0,0.0,0.0
353,California,Pasadena,34.1477849,-118.1445155,1.0,2.0,3.0,0.0,1.0,7.0
354,California,Paso Robles,35.6368759,-120.6545022,1.0,0.0,2.0,0.0,0.0,3.0
355,California,Perris,33.7825194,-117.2286478,0.0,0.0,0.0,0.0,0.0,0.0
356,California,Petaluma,38.232417,-122.6366524,0.0,0.0,0.0,0.0,1.0,1.0
357,California,Pico Rivera,33.9830688,-118.096735,0.0,1.0,1.0,0.0,0.0,2.0
358,California,Piedmont,45.0522366,7.5153885,0.0,0.0,0.0,0.0,0.0,0.0
359,California,Pinole,38.0043667,-122.2988587,0.0,1.0,0.0,0.0,0.0,1.0
360,California,Pittsburg,38.0279762,-121.8846806,1.0,0.0,0.0,0.0,0.0,1.0
361,California,Placentia,33.8710729,-117.8627548,0.0,1.0,2.0,1.0,1.0,5.0
362,California,Placerville,38.7296252,-120.798546,1.0,0.0,0.0,0.0,0.0,1.0
363,California,Pleasant Hill,37.9479786,-122.0607963,0.0,0.0,0.0,1.0,0.0,1.0
364,California,Pomona,34.055103,-117.7499909,1.0,1.0,1.0,0.0,2.0,5.0
365,California,Port Hueneme,34.1477829,-119.1951074,0.0,0.0,0.0,1.0,0.0,1.0
366,California,Poway,32.9628232,-117.0358646,0.0,0.0,0.0,0.0,0.0,0.0
367,California,Rancho Cordova,38.5890723,-121.302728,0.0,1.0,0.0,0.0,0.0,1.0
368,California,Rancho Cucamonga,34.10639889999999,-117.5931084,0.0,0.0,2.0,4.0,4.0,10.0
369,California,Rancho Palos Verdes,33.7444613,-118.3870173,1.0,0.0,0.0,1.0,1.0,3.0
370,California,Rancho Santa Margarita,33.640171,-117.602832,0.0,0.0,0.0,0.0,0.0,0.0
371,California,Red Bluff,40.1784886,-122.2358302,0.0,2.0,2.0,0.0,0.0,4.0
372,California,Redding,40.5865396,-122.3916754,13.0,7.0,1.0,6.0,7.0,34.0
373,California,Redlands,34.0555693,-117.1825381,1.0,0.0,1.0,2.0,4.0,8.0
374,California,Redondo Beach,33.8491816,-118.3884078,3.0,4.0,3.0,1.0,0.0,11.0
375,California,Redwood City,37.48521520000001,-122.2363548,1.0,0.0,0.0,0.0,2.0,3.0
376,California,Reedley,36.5963395,-119.4504029,1.0,0.0,0.0,0.0,0.0,1.0
377,California,Rialto,32.2218532,-110.9664852,0.0,0.0,0.0,1.0,1.0,2.0
378,California,Richmond,37.5407246,-77.4360481,5.0,1.0,0.0,1.0,4.0,11.0
379,California,Ridgecrest,35.6206738,-82.28261789999999,0.0,0.0,0.0,0.0,1.0,1.0
380,California,Ripon,43.8422049,-88.8359447,0.0,0.0,1.0,0.0,0.0,1.0
381,California,Riverside,33.9806005,-117.3754942,5.0,13.0,11.0,3.0,5.0,37.0
382,California,Riverside,33.9806005,-117.3754942,5.0,13.0,11.0,3.0,0.0,32.0
383,California,Riverside,33.9806005,-117.3754942,5.0,2.0,11.0,3.0,5.0,26.0
384,California,Riverside,33.9806005,-117.3754942,5.0,2.0,11.0,3.0,0.0,21.0
385,California,Riverside,33.9806005,-117.3754942,1.0,13.0,11.0,3.0,5.0,33.0
386,California,Riverside,33.9806005,-117.3754942,1.0,13.0,11.0,3.0,0.0,28.0
387,California,Riverside,33.9806005,-117.3754942,1.0,2.0,11.0,3.0,5.0,22.0
388,California,Riverside,33.9806005,-117.3754942,1.0,2.0,11.0,3.0,0.0,17.0
389,California,Riverside Community College,33.9713654,-117.3829776,1.0,0.0,1.0,0.0,0.0,2.0
390,California,Rohnert Park,38.3396367,-122.7010984,0.0,3.0,0.0,0.0,0.0,3.0
391,California,Rolling Hills Estates,33.7877943,-118.3581284,0.0,1.0,0.0,0.0,0.0,1.0
392,California,Rosemead,34.0805651,-118.072846,1.0,0.0,0.0,0.0,0.0,1.0
393,California,Roseville,38.7521235,-121.2880059,1.0,0.0,1.0,1.0,7.0,10.0
394,California,Sacramento,38.5815719,-121.4943996,5.0,8.0,2.0,3.0,2.0,20.0
395,California,Salinas,36.6777372,-121.6555013,0.0,1.0,0.0,1.0,0.0,2.0
396,California,San Anselmo,37.9746458,-122.5616448,1.0,0.0,0.0,0.0,0.0,1.0
397,California,San Bernardino,34.1083449,-117.2897652,1.0,3.0,1.0,3.0,6.0,14.0
398,California,San Bernardino,34.1083449,-117.2897652,1.0,3.0,1.0,3.0,6.0,14.0
399,California,San Bruno,37.6304904,-122.4110835,0.0,0.0,0.0,0.0,2.0,2.0
400,California,San Clemente,33.4273521,-117.6126004,0.0,0.0,1.0,0.0,0.0,1.0
401,California,San Diego,32.715738,-117.1610838,18.0,19.0,16.0,14.0,16.0,83.0
402,California,San Diego,32.715738,-117.1610838,18.0,19.0,16.0,14.0,2.0,69.0
403,California,San Diego,32.715738,-117.1610838,18.0,19.0,2.0,14.0,16.0,69.0
404,California,San Diego,32.715738,-117.1610838,18.0,19.0,2.0,14.0,2.0,55.0
405,California,San Diego,32.715738,-117.1610838,18.0,0.0,16.0,14.0,16.0,64.0
406,California,San Diego,32.715738,-117.1610838,18.0,0.0,16.0,14.0,2.0,50.0
407,California,San Diego,32.715738,-117.1610838,18.0,0.0,2.0,14.0,16.0,50.0
408,California,San Diego,32.715738,-117.1610838,18.0,0.0,2.0,14.0,2.0,36.0
409,California,San Diego,32.715738,-117.1610838,0.0,19.0,16.0,14.0,16.0,65.0
410,California,San Diego,32.715738,-117.1610838,0.0,19.0,16.0,14.0,2.0,51.0
411,California,San Diego,32.715738,-117.1610838,0.0,19.0,2.0,14.0,16.0,51.0
412,California,San Diego,32.715738,-117.1610838,0.0,19.0,2.0,14.0,2.0,37.0
413,California,San Diego,32.715738,-117.1610838,0.0,0.0,16.0,14.0,16.0,46.0
414,California,San Diego,32.715738,-117.1610838,0.0,0.0,16.0,14.0,2.0,32.0
415,California,San Diego,32.715738,-117.1610838,0.0,0.0,2.0,14.0,16.0,32.0
416,California,San Diego,32.715738,-117.1610838,0.0,0.0,2.0,14.0,2.0,18.0
417,California,San Diego State University,32.77572170000001,-117.0718893,1.0,0.0,0.0,1.0,3.0,5.0
418,California,San Dimas,34.1066756,-117.8067257,1.0,1.0,1.0,1.0,0.0,4.0
419,California,San Fernando,34.2819461,-118.4389719,0.0,0.0,0.0,0.0,0.0,0.0
420,California,San Francisco,37.7749295,-122.4194155,14.0,8.0,5.0,10.0,11.0,48.0
421,California,San Francisco,37.7749295,-122.4194155,14.0,8.0,5.0,10.0,0.0,37.0
422,California,San Francisco,37.7749295,-122.4194155,1.0,8.0,5.0,10.0,11.0,35.0
423,California,San Francisco,37.7749295,-122.4194155,1.0,8.0,5.0,10.0,0.0,24.0
424,California,San Gabriel,34.09611110000001,-118.1058333,1.0,0.0,0.0,0.0,0.0,1.0
425,California,San Jacinto,33.7839084,-116.958635,0.0,0.0,0.0,1.0,0.0,1.0
426,California,San Jose,37.3382082,-121.8863286,5.0,7.0,9.0,3.0,10.0,34.0
427,California,San Jose,37.3382082,-121.8863286,5.0,7.0,9.0,3.0,5.0,29.0
428,California,San Jose,37.3382082,-121.8863286,5.0,7.0,9.0,1.0,10.0,32.0
429,California,San Jose,37.3382082,-121.8863286,5.0,7.0,9.0,1.0,5.0,27.0
430,California,San Jose,37.3382082,-121.8863286,5.0,7.0,2.0,3.0,10.0,27.0
431,California,San Jose,37.3382082,-121.8863286,5.0,7.0,2.0,3.0,5.0,22.0
432,California,San Jose,37.3382082,-121.8863286,5.0,7.0,2.0,1.0,10.0,25.0
433,California,San Jose,37.3382082,-121.8863286,5.0,7.0,2.0,1.0,5.0,20.0
434,California,San Jose,37.3382082,-121.8863286,5.0,3.0,9.0,3.0,10.0,30.0
435,California,San Jose,37.3382082,-121.8863286,5.0,3.0,9.0,3.0,5.0,25.0
436,California,San Jose,37.3382082,-121.8863286,5.0,3.0,9.0,1.0,10.0,28.0
437,California,San Jose,37.3382082,-121.8863286,5.0,3.0,9.0,1.0,5.0,23.0
438,California,San Jose,37.3382082,-121.8863286,5.0,3.0,2.0,3.0,10.0,23.0
439,California,San Jose,37.3382082,-121.8863286,5.0,3.0,2.0,3.0,5.0,18.0
440,California,San Jose,37.3382082,-121.8863286,5.0,3.0,2.0,1.0,10.0,21.0
441,California,San Jose,37.3382082,-121.8863286,5.0,3.0,2.0,1.0,5.0,16.0
442,California,San Jose,37.3382082,-121.8863286,1.0,7.0,9.0,3.0,10.0,30.0
443,California,San Jose,37.3382082,-121.8863286,1.0,7.0,9.0,3.0,5.0,25.0
444,California,San Jose,37.3382082,-121.8863286,1.0,7.0,9.0,1.0,10.0,28.0
445,California,San Jose,37.3382082,-121.8863286,1.0,7.0,9.0,1.0,5.0,23.0
446,California,San Jose,37.3382082,-121.8863286,1.0,7.0,2.0,3.0,10.0,23.0
447,California,San Jose,37.3382082,-121.8863286,1.0,7.0,2.0,3.0,5.0,18.0
448,California,San Jose,37.3382082,-121.8863286,1.0,7.0,2.0,1.0,10.0,21.0
449,California,San Jose,37.3382082,-121.8863286,1.0,7.0,2.0,1.0,5.0,16.0
450,California,San Jose,37.3382082,-121.8863286,1.0,3.0,9.0,3.0,10.0,26.0
451,California,San Jose,37.3382082,-121.8863286,1.0,3.0,9.0,3.0,5.0,21.0
452,California,San Jose,37.3382082,-121.8863286,1.0,3.0,9.0,1.0,10.0,24.0
453,California,San Jose,37.3382082,-121.8863286,1.0,3.0,9.0,1.0,5.0,19.0
454,California,San Jose,37.3382082,-121.8863286,1.0,3.0,2.0,3.0,10.0,19.0
455,California,San Jose,37.3382082,-121.8863286,1.0,3.0,2.0,3.0,5.0,14.0
456,California,San Jose,37.3382082,-121.8863286,1.0,3.0,2.0,1.0,10.0,17.0
457,California,San Jose,37.3382082,-121.8863286,1.0,3.0,2.0,1.0,5.0,12.0
458,California,San Juan Capistrano,33.5019027,-117.6627655,0.0,0.0,0.0,0.0,0.0,0.0
459,California,San Leandro,37.7249296,-122.1560768,3.0,4.0,0.0,2.0,15.0,24.0
460,California,San Luis Obispo,35.2827524,-120.6596156,2.0,1.0,1.0,0.0,2.0,6.0
461,California,San Luis Obispo,35.2827524,-120.6596156,2.0,0.0,1.0,0.0,2.0,5.0
462,California,San Marcos,29.8832749,-97.9413941,1.0,0.0,0.0,0.0,1.0,2.0
463,California,San Marcos,29.8832749,-97.9413941,0.0,0.0,0.0,0.0,1.0,1.0
464,California,San Marino,43.94236,12.457777,0.0,0.0,0.0,1.0,0.0,1.0
465,California,San Mateo,37.5629917,-122.3255254,1.0,0.0,2.0,0.0,0.0,3.0
466,California,San Rafael,37.9735346,-122.5310874,1.0,0.0,1.0,0.0,1.0,3.0
467,California,San Ramon,37.7799273,-121.9780153,0.0,0.0,0.0,0.0,4.0,4.0
468,California,Santa Ana,33.7454725,-117.867653,4.0,0.0,5.0,2.0,2.0,13.0
469,California,Santa Barbara,34.4208305,-119.6981901,0.0,1.0,0.0,0.0,0.0,1.0
470,California,Santa Clara,37.3541079,-121.9552356,0.0,0.0,0.0,0.0,0.0,0.0
471,California,Santa Clarita,34.3916641,-118.542586,5.0,2.0,6.0,2.0,6.0,21.0
472,California,Santa Cruz,36.9741171,-122.0307963,2.0,1.0,4.0,4.0,7.0,18.0
473,California,Santa Cruz,36.9741171,-122.0307963,2.0,1.0,4.0,4.0,0.0,11.0
474,California,Santa Cruz,36.9741171,-122.0307963,2.0,1.0,4.0,0.0,7.0,14.0
475,California,Santa Cruz,36.9741171,-122.0307963,2.0,1.0,4.0,0.0,0.0,7.0
476,California,Santa Cruz,36.9741171,-122.0307963,2.0,0.0,4.0,4.0,7.0,17.0
477,California,Santa Cruz,36.9741171,-122.0307963,2.0,0.0,4.0,4.0,0.0,10.0
478,California,Santa Cruz,36.9741171,-122.0307963,2.0,0.0,4.0,0.0,7.0,13.0
479,California,Santa Cruz,36.9741171,-122.0307963,2.0,0.0,4.0,0.0,0.0,6.0
480,California,Santa Maria,34.9530337,-120.4357191,1.0,0.0,0.0,0.0,0.0,1.0
481,California,Santa Monica,34.0194543,-118.4911912,9.0,0.0,0.0,0.0,1.0,10.0
482,California,Santa Paula,34.3541659,-119.0592705,0.0,0.0,0.0,0.0,0.0,0.0
483,California,Santa Rosa,38.440429,-122.7140548,1.0,0.0,0.0,1.0,0.0,2.0
484,California,Santa Rosa Junior College,38.4551932,-122.7201417,1.0,0.0,0.0,0.0,0.0,1.0
485,California,Santee,32.8383828,-116.9739167,0.0,2.0,1.0,0.0,0.0,3.0
486,California,Saratoga,43.0448483,-73.6300729,0.0,1.0,0.0,0.0,0.0,1.0
487,California,Scotts Valley,37.0510595,-122.0146841,1.0,0.0,0.0,1.0,0.0,2.0
488,California,Seaside,30.3216504,-86.1429286,0.0,0.0,0.0,1.0,0.0,1.0
489,California,Sebastopol,38.4021359,-122.8238806,0.0,0.0,0.0,0.0,1.0,1.0
490,California,Selma,32.4073589,-87.02110069999999,0.0,0.0,0.0,0.0,0.0,0.0
491,California,Sierra Madre,34.1616729,-118.0528456,0.0,0.0,1.0,0.0,0.0,1.0
492,California,Simi Valley,34.2694474,-118.781482,2.0,2.0,3.0,4.0,1.0,12.0
493,California,Solvang,34.5958201,-120.1376481,0.0,0.0,0.0,0.0,0.0,0.0
494,California,Sonoma,38.291859,-122.4580356,0.0,0.0,0.0,1.0,1.0,2.0
495,California,Sonora,29.2972247,-110.3308814,1.0,1.0,1.0,0.0,1.0,4.0
496,California,South Gate,33.954737,-118.2120161,1.0,0.0,0.0,0.0,0.0,1.0
497,California,South Lake Tahoe,38.939926,-119.9771868,0.0,1.0,0.0,0.0,0.0,1.0
498,California,South San Francisco,37.654656,-122.4077498,0.0,0.0,0.0,0.0,0.0,0.0
499,California,Stanislaus,37.5090711,-120.9876321,0.0,0.0,0.0,0.0,0.0,0.0
500,California,Stanton,33.8028875,-117.9931203,0.0,0.0,0.0,0.0,0.0,0.0
501,California,Stockton,37.9577016,-121.2907796,2.0,1.0,2.0,1.0,2.0,8.0
502,California,Suisun City,38.2382474,-122.040244,0.0,0.0,0.0,0.0,1.0,1.0
503,California,Sunnyvale,37.36883,-122.0363496,3.0,1.0,0.0,0.0,0.0,4.0
504,California,Taft,39.1113119,-84.51752979999999,2.0,0.0,0.0,0.0,0.0,2.0
505,California,Tehachapi,35.1321877,-118.4489739,1.0,2.0,1.0,0.0,0.0,4.0
506,California,Temecula,33.4936391,-117.1483648,2.0,1.0,0.0,1.0,0.0,4.0
507,California,Temple City,34.1072305,-118.0578456,1.0,0.0,1.0,0.0,0.0,2.0
508,California,Thousand Oaks,34.1705609,-118.8375937,2.0,0.0,0.0,0.0,0.0,2.0
509,California,Torrance,33.8358492,-118.3406288,1.0,2.0,0.0,0.0,0.0,3.0
510,California,Tracy,37.7396513,-121.4252227,1.0,5.0,2.0,2.0,0.0,10.0
511,California,Tulare,36.2077288,-119.3473379,0.0,0.0,0.0,0.0,0.0,0.0
512,California,Turlock,37.4946568,-120.8465941,1.0,1.0,0.0,3.0,3.0,8.0
513,California,Twentynine Palms,34.1355582,-116.0541689,0.0,0.0,0.0,0.0,1.0,1.0
514,California,Ukiah,39.1501709,-123.2077831,0.0,0.0,1.0,0.0,0.0,1.0
515,California,Union City,37.5933918,-122.0438298,0.0,5.0,3.0,0.0,0.0,8.0
516,California,Upland,40.7417865,-73.98477,1.0,0.0,0.0,1.0,0.0,2.0
517,California,Vacaville,38.3565773,-121.9877444,0.0,0.0,1.0,0.0,1.0,2.0
518,California,Vallejo,38.1040864,-122.2566367,2.0,2.0,0.0,0.0,2.0,6.0
519,California,Ventura,34.2804923,-119.2945199,1.0,0.0,1.0,2.0,2.0,6.0
520,California,Ventura County Community College District,34.2190118,-119.0579863,0.0,0.0,0.0,1.0,0.0,1.0
521,California,Vernon,34.003903,-118.230073,0.0,1.0,0.0,0.0,0.0,1.0
522,California,Victorville,34.5362184,-117.2927641,2.0,6.0,1.0,0.0,1.0,10.0
523,California,Villa Park,41.8897519,-87.98895429999999,1.0,0.0,0.0,0.0,0.0,1.0
524,California,Visalia,36.3302284,-119.2920585,2.0,1.0,1.0,2.0,0.0,6.0
525,California,Vista,33.2000368,-117.2425355,3.0,1.0,2.0,2.0,0.0,8.0
526,California,Walnut Creek,37.9100783,-122.0651819,0.0,1.0,1.0,1.0,1.0,4.0
527,California,Waterford,40.5791975,-111.8463511,0.0,0.0,1.0,0.0,0.0,1.0
528,California,Watsonville,36.910231,-121.7568946,3.0,0.0,0.0,0.0,0.0,3.0
529,California,West Covina,34.0686208,-117.9389526,5.0,6.0,2.0,2.0,1.0,16.0
530,California,West Hollywood,34.0900091,-118.3617443,4.0,3.0,2.0,3.0,2.0,14.0
531,California,Westlake Village,34.1466467,-118.8073729,0.0,0.0,0.0,0.0,0.0,0.0
532,California,Westminster,51.4974948,-0.1356583,0.0,2.0,0.0,0.0,3.0,5.0
533,California,Wildomar,33.5989126,-117.2800372,0.0,0.0,0.0,0.0,1.0,1.0
534,California,Windsor,37.0428341,-95.6586128,0.0,0.0,0.0,0.0,2.0,2.0
535,California,Yorba Linda,33.88850350000001,-117.8132571,0.0,1.0,0.0,0.0,0.0,1.0
536,California,Yuba City,39.1404477,-121.6169108,0.0,1.0,1.0,0.0,0.0,2.0
537,California,Yucaipa,34.033625,-117.0430865,1.0,0.0,0.0,0.0,0.0,1.0
538,California,Yucca Valley,34.1141743,-116.432235,0.0,1.0,1.0,0.0,0.0,2.0
539,Colorado,Arvada,39.8027644,-105.0874842,0.0,2.0,1.0,1.0,0.0,4.0
540,Colorado,Aspen,39.1910983,-106.8175387,1.0,0.0,0.0,1.0,0.0,2.0
541,Colorado,Aurora,42.5698683,-87.9353402,2.0,5.0,1.0,4.0,15.0,27.0
542,Colorado,Basalt,39.36887309999999,-107.0328241,0.0,0.0,0.0,1.0,0.0,1.0
543,Colorado,Berthoud,40.3083174,-105.0810924,1.0,0.0,0.0,0.0,0.0,1.0
544,Colorado,Boulder,40.0149856,-105.2705456,1.0,0.0,1.0,1.0,2.0,5.0
545,Colorado,Boulder,40.0149856,-105.2705456,1.0,0.0,1.0,1.0,2.0,5.0
546,Colorado,Breckenridge,39.4816537,-106.0383518,0.0,0.0,0.0,1.0,0.0,1.0
547,Colorado,Brighton,40.598019,-111.583187,0.0,0.0,0.0,0.0,0.0,0.0
548,Colorado,Canon City,38.4494063,-105.2253316,0.0,0.0,1.0,0.0,0.0,1.0
549,Colorado,Carbondale,37.7272727,-89.2167501,0.0,0.0,0.0,0.0,1.0,1.0
550,Colorado,Castle Rock,39.3722121,-104.8560902,0.0,2.0,1.0,1.0,0.0,4.0
551,Colorado,Centennial,36.0876282,-95.7918634,3.0,3.0,1.0,1.0,2.0,10.0
552,Colorado,Colorado Springs,38.8338816,-104.8213634,9.0,4.0,6.0,5.0,1.0,25.0
553,Colorado,Colorado Springs,38.8338816,-104.8213634,9.0,4.0,6.0,1.0,1.0,21.0
554,Colorado,Colorado Springs,38.8338816,-104.8213634,9.0,4.0,0.0,5.0,1.0,19.0
555,Colorado,Colorado Springs,38.8338816,-104.8213634,9.0,4.0,0.0,1.0,1.0,15.0
556,Colorado,"Colorado State University, Fort Collins",40.573436,-105.0865473,1.0,1.0,0.0,0.0,0.0,2.0
557,Colorado,Commerce City,39.8083196,-104.9338675,0.0,0.0,1.0,0.0,0.0,1.0
558,Colorado,Craig,40.5152491,-107.5464541,3.0,0.0,0.0,1.0,0.0,4.0
559,Colorado,Delta,36.2756863,-94.2968956,0.0,0.0,0.0,0.0,0.0,0.0
560,Colorado,Denver,39.7392358,-104.990251,27.0,10.0,9.0,8.0,10.0,64.0
561,Colorado,Dillon,34.4165505,-79.3711579,0.0,1.0,0.0,0.0,0.0,1.0
562,Colorado,Durango,37.27528,-107.8800667,2.0,0.0,0.0,1.0,0.0,3.0
563,Colorado,Englewood,41.775305,-87.6416419,2.0,1.0,0.0,0.0,0.0,3.0
564,Colorado,Erie,42.12922409999999,-80.085059,0.0,0.0,0.0,0.0,1.0,1.0
565,Colorado,Florence,43.7695604,11.2558136,0.0,0.0,0.0,0.0,1.0,1.0
566,Colorado,Fort Collins,40.5852602,-105.084423,2.0,0.0,3.0,3.0,2.0,10.0
567,Colorado,Fort Lupton,40.0847055,-104.8130275,0.0,0.0,0.0,0.0,1.0,1.0
568,Colorado,Fort Morgan,30.2280472,-88.0229232,0.0,0.0,2.0,0.0,0.0,2.0
569,Colorado,Fountain,37.2244423,-95.7066869,4.0,2.0,0.0,0.0,0.0,6.0
570,Colorado,Frisco,33.1506744,-96.82361159999999,1.0,0.0,0.0,0.0,0.0,1.0
571,Colorado,Glendale,34.1425078,-118.255075,3.0,0.0,0.0,0.0,0.0,3.0
572,Colorado,Glenwood Springs,39.5505376,-107.3247762,2.0,0.0,2.0,2.0,0.0,6.0
573,Colorado,Golden,39.755543,-105.2210997,0.0,1.0,1.0,1.0,1.0,4.0
574,Colorado,Grand Junction,39.0638705,-108.5506486,1.0,4.0,0.0,1.0,3.0,9.0
575,Colorado,Greeley,40.4233142,-104.7091322,5.0,0.0,0.0,1.0,0.0,6.0
576,Colorado,Greenwood Village,39.6172101,-104.9508141,0.0,1.0,1.0,2.0,0.0,4.0
577,Colorado,Gunnison,38.5458246,-106.9253207,0.0,0.0,1.0,0.0,0.0,1.0
578,Colorado,Hotchkiss,41.9449701,-73.4398162,0.0,0.0,0.0,0.0,0.0,0.0
579,Colorado,Idaho Springs,39.7424881,-105.5136081,0.0,0.0,1.0,0.0,0.0,1.0
580,Colorado,Johnstown,40.32674069999999,-78.9219698,1.0,0.0,0.0,0.0,0.0,1.0
581,Colorado,La Junta,37.9850091,-103.5438321,1.0,0.0,0.0,1.0,0.0,2.0
582,Colorado,Lafayette,37.8857582,-122.1180201,3.0,3.0,0.0,0.0,0.0,6.0
583,Colorado,Lakewood,33.8536269,-118.1339563,1.0,2.0,1.0,0.0,0.0,4.0
584,Colorado,Littleton,39.613321,-105.0166498,2.0,1.0,0.0,0.0,0.0,3.0
585,Colorado,Lone Tree,39.536482,-104.8970678,5.0,0.0,0.0,0.0,0.0,5.0
586,Colorado,Longmont,40.1672068,-105.1019275,5.0,2.0,3.0,2.0,3.0,15.0
587,Colorado,Loveland,39.6800375,-105.8979465,0.0,1.0,0.0,0.0,1.0,2.0
588,Colorado,Meeker,40.03747329999999,-107.9131299,1.0,0.0,0.0,0.0,0.0,1.0
589,Colorado,Monument,37.0364102,-95.6384683,1.0,0.0,0.0,0.0,0.0,1.0
590,Colorado,Nederland,39.9613759,-105.5108312,0.0,0.0,0.0,0.0,1.0,1.0
591,Colorado,New Castle,41.1889606,-73.78308609999999,0.0,0.0,1.0,0.0,0.0,1.0
592,Colorado,Parachute,39.45192249999999,-108.0528529,0.0,0.0,1.0,0.0,0.0,1.0
593,Colorado,Parker,37.0682805,-95.6142558,1.0,0.0,0.0,0.0,0.0,1.0
594,Colorado,Pueblo,38.262966,-104.6129197,3.0,2.0,1.0,5.0,1.0,12.0
595,Colorado,Rifle,37.3483352,-96.45215189999999,0.0,1.0,0.0,0.0,0.0,1.0
596,Colorado,Sheridan,44.7971939,-106.9561791,1.0,0.0,0.0,0.0,0.0,1.0
597,Colorado,Snowmass Village,39.2130418,-106.9378207,0.0,1.0,0.0,0.0,0.0,1.0
598,Colorado,Steamboat Springs,40.4849769,-106.8317158,1.0,1.0,3.0,0.0,0.0,5.0
599,Colorado,Sterling,37.09024,-95.712891,2.0,0.0,2.0,1.0,1.0,6.0
600,Colorado,Telluride,37.9374939,-107.8122852,1.0,0.0,0.0,0.0,0.0,1.0
601,Colorado,Thornton,39.8680412,-104.9719243,0.0,0.0,0.0,0.0,0.0,0.0
602,Colorado,Trinidad,10.3757217,-61.23355919999999,0.0,0.0,0.0,0.0,0.0,0.0
603,Colorado,"University of Colorado, Boulder",40.00758099999999,-105.2659417,0.0,0.0,0.0,0.0,2.0,2.0
604,Colorado,University of Northern Colorado,40.4055236,-104.6961077,1.0,0.0,0.0,0.0,0.0,1.0
605,Colorado,Walsenburg,37.6241793,-104.7802645,0.0,0.0,0.0,2.0,0.0,2.0
606,Colorado,Westminster,51.4974948,-0.1356583,1.0,0.0,0.0,0.0,0.0,1.0
607,Colorado,Wheat Ridge,39.766098,-105.0772063,2.0,0.0,0.0,0.0,0.0,2.0
608,Colorado,Windsor,37.0428341,-95.6586128,2.0,0.0,0.0,0.0,0.0,2.0
609,Connecticut,Berlin,52.52000659999999,13.404954,0.0,0.0,0.0,0.0,0.0,0.0
610,Connecticut,Bethel,40.6098473,-122.3584268,0.0,1.0,0.0,1.0,0.0,2.0
611,Connecticut,Bloomfield,40.8067546,-74.1854209,1.0,0.0,4.0,0.0,0.0,5.0
612,Connecticut,Bridgeport,41.1792258,-73.1894384,3.0,8.0,4.0,5.0,5.0,25.0
613,Connecticut,Bristol,51.454513,-2.58791,1.0,0.0,1.0,1.0,0.0,3.0
614,Connecticut,Brookfield,40.7131919,-74.0159125,0.0,0.0,0.0,0.0,0.0,0.0
615,Connecticut,Canton,44.602382,-75.183458,0.0,0.0,0.0,0.0,0.0,0.0
616,Connecticut,Central Connecticut State University,41.693255,-72.764167,0.0,0.0,0.0,2.0,0.0,2.0
617,Connecticut,Cheshire,53.23263439999999,-2.6103158,0.0,0.0,1.0,1.0,0.0,2.0
618,Connecticut,Clinton,41.2882208,-72.5288034,0.0,0.0,0.0,0.0,1.0,1.0
619,Connecticut,Connecticut State Police,41.4567287,-73.2342397,0.0,0.0,0.0,0.0,0.0,0.0
620,Connecticut,Coventry,52.406822,-1.519693,0.0,0.0,0.0,0.0,0.0,0.0
621,Connecticut,Danbury,41.394817,-73.4540111,0.0,1.0,1.0,2.0,3.0,7.0
622,Connecticut,Darien,41.0771914,-73.4686858,0.0,0.0,0.0,0.0,0.0,0.0
623,Connecticut,Derby,37.5455735,-97.2689331,1.0,1.0,0.0,1.0,0.0,3.0
624,Connecticut,East Hampton,40.96343350000001,-72.1848009,0.0,0.0,0.0,0.0,0.0,0.0
625,Connecticut,East Hartford,41.7634219,-72.6128339,0.0,0.0,1.0,0.0,0.0,1.0
626,Connecticut,East Windsor,40.2677539,-74.5402506,0.0,1.0,0.0,0.0,0.0,1.0
627,Connecticut,Easton,40.0507247,-82.91537389999999,0.0,0.0,0.0,0.0,0.0,0.0
628,Connecticut,Enfield,42.0027181,-72.5441445,3.0,1.0,0.0,0.0,0.0,4.0
629,Connecticut,Fairfield,41.1408363,-73.2612615,0.0,0.0,0.0,0.0,0.0,0.0
630,Connecticut,Farmington,36.72805830000001,-108.2186856,0.0,0.0,1.0,0.0,0.0,1.0
631,Connecticut,Glastonbury,51.147427,-2.718454,1.0,1.0,1.0,0.0,0.0,3.0
632,Connecticut,Greenwich,51.48257659999999,-0.0076589,0.0,0.0,0.0,0.0,0.0,0.0
633,Connecticut,Groton,42.6112018,-71.5745152,0.0,1.0,0.0,0.0,1.0,2.0
634,Connecticut,Groton Town,41.3497456,-72.0790717,0.0,1.0,1.0,0.0,1.0,3.0
635,Connecticut,Guilford,36.0899873,-79.8296743,0.0,0.0,0.0,2.0,1.0,3.0
636,Connecticut,Hamden,41.3838782,-72.9026064,1.0,0.0,1.0,0.0,0.0,2.0
637,Connecticut,Hartford,41.7658043,-72.6733723,1.0,1.0,0.0,1.0,5.0,8.0
638,Connecticut,Ledyard,41.4456444,-72.0181743,0.0,0.0,0.0,0.0,0.0,0.0
639,Connecticut,Madison,43.0730517,-89.4012302,0.0,0.0,0.0,0.0,0.0,0.0
640,Connecticut,Manchester,53.4807593,-2.2426305,11.0,8.0,5.0,1.0,6.0,31.0
641,Connecticut,Meriden,41.5381535,-72.80704349999999,0.0,2.0,1.0,1.0,0.0,4.0
642,Connecticut,Middlebury,44.0153371,-73.16734,0.0,0.0,1.0,0.0,0.0,1.0
643,Connecticut,Middletown,41.5623209,-72.6506488,3.0,6.0,5.0,3.0,1.0,18.0
644,Connecticut,Milford,41.2306979,-73.064036,2.0,4.0,3.0,0.0,0.0,9.0
645,Connecticut,Naugatuck,41.485921,-73.0506972,1.0,0.0,0.0,0.0,1.0,2.0
646,Connecticut,New Britain,41.6612104,-72.7795419,0.0,0.0,0.0,1.0,0.0,1.0
647,Connecticut,New Canaan,41.146763,-73.4948445,1.0,0.0,0.0,0.0,0.0,1.0
648,Connecticut,New Haven,41.308274,-72.9278835,9.0,6.0,5.0,7.0,4.0,31.0
649,Connecticut,New London,41.3556539,-72.0995209,4.0,1.0,0.0,1.0,0.0,6.0
650,Connecticut,New Milford,41.5770433,-73.4085463,1.0,1.0,0.0,1.0,0.0,3.0
651,Connecticut,Newington,41.6972996,-72.7228293,1.0,1.0,0.0,1.0,1.0,4.0
652,Connecticut,Newtown,41.4141172,-73.3035651,0.0,0.0,2.0,0.0,0.0,2.0
653,Connecticut,North Branford,41.3275971,-72.7673198,0.0,2.0,0.0,0.0,0.0,2.0
654,Connecticut,North Haven,41.39091390000001,-72.8595447,0.0,0.0,0.0,1.0,0.0,1.0
655,Connecticut,Norwalk,41.11774399999999,-73.4081575,2.0,2.0,1.0,1.0,5.0,11.0
656,Connecticut,Norwich,43.7153482,-72.307869,2.0,1.0,1.0,0.0,1.0,5.0
657,Connecticut,Old Saybrook,41.2960159,-72.38453009999999,2.0,3.0,4.0,1.0,1.0,11.0
658,Connecticut,Orange,-33.283333,149.1,1.0,0.0,0.0,0.0,0.0,1.0
659,Connecticut,Plainfield,39.70421229999999,-86.39943869999999,0.0,0.0,1.0,1.0,0.0,2.0
660,Connecticut,Plainville,41.6757457,-72.86336349999999,0.0,0.0,0.0,0.0,0.0,0.0
661,Connecticut,Plymouth,41.9584457,-70.6672621,0.0,0.0,0.0,0.0,0.0,0.0
662,Connecticut,Redding,40.5865396,-122.3916754,0.0,0.0,1.0,0.0,0.0,1.0
663,Connecticut,Ridgefield,41.28406349999999,-73.4975412,0.0,0.0,0.0,0.0,0.0,0.0
664,Connecticut,Rocky Hill,41.6572525,-72.66557569999999,0.0,0.0,0.0,0.0,0.0,0.0
665,Connecticut,Seymour,44.5149879,-88.3303798,2.0,0.0,1.0,0.0,0.0,3.0
666,Connecticut,Shelton,41.3164856,-73.0931641,1.0,0.0,1.0,0.0,0.0,2.0
667,Connecticut,Simsbury,41.8540094,-72.82791499999999,1.0,0.0,0.0,0.0,0.0,1.0
668,Connecticut,South Windsor,41.8489872,-72.57175509999999,0.0,0.0,0.0,0.0,0.0,0.0
669,Connecticut,Southern Connecticut State University,41.332566,-72.947462,0.0,2.0,0.0,0.0,0.0,2.0
670,Connecticut,Southington,41.5964869,-72.8776013,6.0,7.0,2.0,1.0,1.0,17.0
671,Connecticut,Stamford,41.0534302,-73.5387341,3.0,3.0,2.0,7.0,5.0,20.0
672,Connecticut,Stonington,41.3358915,-71.9058854,1.0,0.0,0.0,1.0,0.0,2.0
673,Connecticut,Stratford,37.2249066,-95.7098287,2.0,2.0,1.0,2.0,1.0,8.0
674,Connecticut,Suffield,41.9915062,-72.7017741,0.0,1.0,0.0,1.0,0.0,2.0
675,Connecticut,Torrington,41.8003049,-73.1211715,4.0,5.0,2.0,3.0,1.0,15.0
676,Connecticut,Trumbull,41.2428563,-73.2006639,0.0,0.0,0.0,1.0,1.0,2.0
677,Connecticut,Vernon,34.003903,-118.230073,0.0,0.0,2.0,1.0,1.0,4.0
678,Connecticut,Wallingford,41.4570108,-72.8230736,3.0,4.0,1.0,1.0,1.0,10.0
679,Connecticut,Waterbury,41.5581525,-73.0514965,4.0,6.0,3.0,0.0,6.0,19.0
680,Connecticut,Waterford,40.5791975,-111.8463511,0.0,0.0,0.0,1.0,0.0,1.0
681,Connecticut,Watertown,42.3709299,-71.1828321,0.0,0.0,1.0,0.0,0.0,1.0
682,Connecticut,West Hartford,41.7620842,-72.7420151,1.0,0.0,1.0,1.0,1.0,4.0
683,Connecticut,West Haven,41.2705484,-72.9469711,2.0,1.0,1.0,1.0,0.0,5.0
684,Connecticut,Western Connecticut State University,41.4007198,-73.4449401,0.0,0.0,0.0,2.0,0.0,2.0
685,Connecticut,Westport,41.1414717,-73.3579049,0.0,0.0,0.0,0.0,2.0,2.0
686,Connecticut,Wethersfield,41.7063537,-72.6596244,0.0,0.0,0.0,0.0,1.0,1.0
687,Connecticut,Willimantic,41.7106543,-72.2081338,0.0,1.0,0.0,0.0,1.0,2.0
688,Connecticut,Wilton,41.1953739,-73.4378988,0.0,0.0,0.0,0.0,0.0,0.0
689,Connecticut,Winchester,39.1856597,-78.1633341,0.0,2.0,0.0,1.0,0.0,3.0
690,Connecticut,Windsor,37.0428341,-95.6586128,1.0,0.0,1.0,1.0,0.0,3.0
691,Connecticut,Windsor Locks,41.9242917,-72.6454469,1.0,0.0,0.0,0.0,0.0,1.0
692,Connecticut,Wolcott,41.6023196,-72.9867718,0.0,1.0,0.0,0.0,0.0,1.0
693,Connecticut,Woodbridge,41.352597,-73.0084385,0.0,0.0,1.0,0.0,0.0,1.0
694,Connecticut,Yale University,41.3163244,-72.92234309999999,0.0,0.0,0.0,0.0,0.0,0.0
695,Delaware,Camden,39.9259463,-75.1196199,0.0,0.0,1.0,0.0,1.0,2.0
696,Delaware,Delaware State University,39.1861372,-75.5422735,0.0,1.0,0.0,0.0,0.0,1.0
697,Delaware,Dover,51.1278758,1.3134027,0.0,0.0,0.0,0.0,0.0,0.0
698,Delaware,Laurel,37.2257372,-95.7255788,0.0,0.0,0.0,1.0,0.0,1.0
699,Delaware,Milford,41.2306979,-73.064036,0.0,1.0,0.0,1.0,0.0,2.0
700,Delaware,Milton,42.2495321,-71.0661653,1.0,1.0,0.0,1.0,0.0,3.0
701,Delaware,New Castle,41.1889606,-73.78308609999999,0.0,1.0,0.0,0.0,0.0,1.0
702,Delaware,Newark,40.735657,-74.1723667,0.0,0.0,1.0,0.0,1.0,2.0
703,Delaware,Rehoboth Beach,38.7209454,-75.07601369999999,0.0,0.0,1.0,0.0,1.0,2.0
704,Delaware,Seaford,40.6659344,-73.4881809,0.0,1.0,0.0,0.0,0.0,1.0
705,Delaware,Smyrna,33.8839926,-84.51437609999999,0.0,1.0,0.0,0.0,0.0,1.0
706,Delaware,Wilmington,39.7390721,-75.5397878,2.0,0.0,1.0,2.0,0.0,5.0
707,District of Columbia,Washington,47.7510741,-120.7401385,18.0,21.0,16.0,22.0,26.0,103.0
708,Florida,Apopka,28.6934076,-81.5322149,1.0,0.0,0.0,0.0,0.0,1.0
709,Florida,Arcadia,37.5557825,22.3337769,0.0,0.0,0.0,0.0,1.0,1.0
710,Florida,Aventura,25.9564812,-80.1392121,1.0,0.0,0.0,0.0,0.0,1.0
711,Florida,Bartow,27.8964147,-81.8431374,0.0,0.0,0.0,0.0,0.0,0.0
712,Florida,Cape Coral,26.5628537,-81.9495331,1.0,0.0,1.0,0.0,1.0,3.0
713,Florida,Casselberry,28.677775,-81.3278455,1.0,0.0,0.0,0.0,0.0,1.0
714,Florida,Clearwater,27.9658533,-82.8001026,0.0,0.0,0.0,2.0,0.0,2.0
715,Florida,Clermont,28.5494447,-81.77285429999999,1.0,0.0,0.0,0.0,0.0,1.0
716,Florida,Clewiston,26.7542312,-80.93367529999999,0.0,0.0,1.0,0.0,0.0,1.0
717,Florida,Cocoa,28.3861159,-80.7419984,0.0,0.0,0.0,0.0,0.0,0.0
718,Florida,Coral Gables,25.72149,-80.2683838,1.0,0.0,0.0,0.0,1.0,2.0
719,Florida,Coral Springs,26.271192,-80.2706044,0.0,0.0,0.0,0.0,0.0,0.0
720,Florida,Davie,26.0764783,-80.25211569999999,0.0,0.0,0.0,0.0,3.0,3.0
721,Florida,Daytona Beach Shores,29.1760933,-80.9828323,0.0,0.0,0.0,1.0,0.0,1.0
722,Florida,Deland,29.028318,-81.3031179,0.0,0.0,0.0,0.0,0.0,0.0
723,Florida,Delray Beach,26.4614625,-80.0728201,0.0,1.0,1.0,0.0,0.0,2.0
724,Florida,Fort Lauderdale,26.1224386,-80.13731740000001,0.0,0.0,0.0,0.0,0.0,0.0
725,Florida,Fort Myers,26.640628,-81.8723084,1.0,0.0,0.0,0.0,2.0,3.0
726,Florida,Gainesville,29.6516344,-82.32482619999999,4.0,2.0,0.0,2.0,4.0,12.0
727,Florida,Green Cove Springs,29.9919085,-81.6781467,1.0,0.0,0.0,0.0,0.0,1.0
728,Florida,Hallandale,25.9812024,-80.14837899999999,0.0,2.0,0.0,0.0,0.0,2.0
729,Florida,Homestead,37.9969744,-79.83041519999999,2.0,2.0,0.0,0.0,1.0,5.0
730,Florida,Jacksonville,30.3321838,-81.65565099999999,2.0,5.0,0.0,0.0,0.0,7.0
731,Florida,Jupiter,26.9342246,-80.0942087,2.0,1.0,0.0,0.0,0.0,3.0
732,Florida,Key West,24.5550593,-81.7799871,0.0,0.0,0.0,0.0,0.0,0.0
733,Florida,Kissimmee,28.2919557,-81.40757099999999,0.0,0.0,1.0,0.0,0.0,1.0
734,Florida,Lake Alfred,28.091963,-81.7234114,0.0,1.0,0.0,0.0,0.0,1.0
735,Florida,Lake Clarke Shores,26.6453449,-80.0758754,0.0,0.0,0.0,0.0,0.0,0.0
736,Florida,Lakeland,39.4168843,-88.380659,1.0,0.0,0.0,0.0,0.0,1.0
737,Florida,Largo,34.0778713,-118.3763218,1.0,0.0,1.0,0.0,1.0,3.0
738,Florida,Leesburg,39.1156615,-77.56360149999999,0.0,0.0,0.0,0.0,0.0,0.0
739,Florida,Margate,26.2445263,-80.206436,0.0,0.0,0.0,0.0,0.0,0.0
740,Florida,Melbourne,-37.8136276,144.9630576,4.0,1.0,0.0,0.0,0.0,5.0
741,Florida,Miami Beach,25.790654,-80.1300455,0.0,0.0,1.0,2.0,0.0,3.0
742,Florida,Miami Gardens,25.9420377,-80.2456045,1.0,0.0,0.0,6.0,0.0,7.0
743,Florida,Miramar,32.8767389,-117.1382404,3.0,0.0,1.0,0.0,0.0,4.0
744,Florida,New College of Florida,27.384828,-82.558703,1.0,0.0,0.0,0.0,0.0,1.0
745,Florida,New Port Richey,28.2441768,-82.7192671,0.0,0.0,0.0,0.0,2.0,2.0
746,Florida,New Smyrna Beach,29.0258191,-80.9269984,1.0,0.0,0.0,0.0,0.0,1.0
747,Florida,North Miami,25.8900949,-80.1867138,0.0,2.0,0.0,0.0,0.0,2.0
748,Florida,North Miami Beach,25.9331488,-80.1625463,0.0,0.0,0.0,0.0,0.0,0.0
749,Florida,North Palm Beach,26.8171165,-80.0590804,0.0,0.0,0.0,0.0,0.0,0.0
750,Florida,North Port,27.044224,-82.2359254,1.0,0.0,0.0,1.0,0.0,2.0
751,Florida,Oakland Park,26.1723065,-80.1319893,1.0,0.0,0.0,0.0,0.0,1.0
752,Florida,Ocala,29.1871986,-82.14009229999999,0.0,0.0,0.0,1.0,0.0,1.0
753,Florida,Ocoee,28.5691677,-81.5439619,1.0,0.0,0.0,0.0,0.0,1.0
754,Florida,Orange Park,30.1660736,-81.706484,1.0,0.0,0.0,0.0,0.0,1.0
755,Florida,Orlando,28.5383355,-81.3792365,2.0,1.0,3.0,0.0,3.0,9.0
756,Florida,Ormond Beach,29.2858129,-81.0558894,1.0,0.0,0.0,0.0,0.0,1.0
757,Florida,Oviedo,28.669997,-81.20812029999999,1.0,0.0,1.0,0.0,0.0,2.0
758,Florida,Palm Bay,28.0344621,-80.5886646,0.0,1.0,1.0,3.0,3.0,8.0
759,Florida,Panama City,8.9823792,-79.51986959999999,0.0,2.0,0.0,0.0,0.0,2.0
760,Florida,Pembroke Pines,26.007765,-80.2962555,0.0,1.0,0.0,0.0,0.0,1.0
761,Florida,Pensacola,30.42130899999999,-87.2169149,3.0,0.0,0.0,0.0,0.0,3.0
762,Florida,Pinellas Park,27.8428025,-82.6995443,1.0,0.0,0.0,0.0,1.0,2.0
763,Florida,Pompano Beach,26.2378597,-80.1247667,2.0,2.0,0.0,0.0,0.0,4.0
764,Florida,Port St. Lucie,27.2730492,-80.3582261,0.0,1.0,0.0,1.0,0.0,2.0
765,Florida,Sanford,43.53364270000001,-96.742081,1.0,0.0,0.0,0.0,0.0,1.0
766,Florida,South Daytona,29.1658158,-81.0044995,0.0,0.0,0.0,1.0,0.0,1.0
767,Florida,Southwest Ranches,26.0587001,-80.33727329999999,0.0,0.0,0.0,0.0,1.0,1.0
768,Florida,St. Petersburg,59.9342802,30.3350986,0.0,0.0,0.0,0.0,0.0,0.0
769,Florida,Stuart,27.197548,-80.2528257,0.0,0.0,0.0,0.0,0.0,0.0
770,Florida,Sunrise,36.677442,-93.8695176,0.0,1.0,0.0,0.0,0.0,1.0
771,Florida,Tallahassee,30.4382559,-84.28073289999999,1.0,1.0,0.0,0.0,0.0,2.0
772,Florida,Tamarac,26.2128609,-80.2497707,0.0,0.0,0.0,0.0,0.0,0.0
773,Florida,Tampa,27.950575,-82.4571776,0.0,0.0,0.0,0.0,2.0,2.0
774,Florida,Temple Terrace,28.0352964,-82.3892596,1.0,0.0,1.0,0.0,0.0,2.0
775,Florida,Titusville,28.6122187,-80.8075537,0.0,0.0,1.0,0.0,0.0,1.0
776,Florida,University of Central Florida,28.6024274,-81.2000599,1.0,0.0,0.0,0.0,0.0,1.0
777,Florida,University of Florida,29.6436325,-82.3549302,3.0,0.0,0.0,0.0,1.0,4.0
778,Florida,"University of South Florida, Tampa",28.0587031,-82.41385389999999,0.0,0.0,0.0,1.0,0.0,1.0
779,Florida,University of West Florida,30.5469345,-87.2160218,2.0,0.0,0.0,0.0,0.0,2.0
780,Florida,Venice,45.4408474,12.3155151,0.0,0.0,0.0,1.0,0.0,1.0
781,Florida,Village of Pinecrest,25.6622835,-80.3070395,1.0,0.0,0.0,0.0,0.0,1.0
782,Florida,Wellington,-41.2864603,174.776236,0.0,0.0,0.0,0.0,0.0,0.0
783,Florida,West Palm Beach,26.7153424,-80.0533746,0.0,0.0,4.0,0.0,0.0,4.0
784,Florida,West Park,25.984536,-80.19893619999999,0.0,0.0,0.0,0.0,1.0,1.0
785,Florida,Weston,26.1003654,-80.3997748,0.0,1.0,1.0,0.0,0.0,2.0
786,Florida,Wilton Manors,26.1603626,-80.13893399999999,0.0,0.0,0.0,0.0,0.0,0.0
787,Florida,Winter Garden,28.5652787,-81.58618469999999,0.0,0.0,1.0,0.0,0.0,1.0
788,Georgia,Athens-Clarke County,33.9519347,-83.357567,0.0,0.0,0.0,0.0,0.0,0.0
789,Georgia,Atlanta,33.7489954,-84.3879824,0.0,7.0,2.0,2.0,0.0,11.0
790,Georgia,Berry College,34.290361,-85.189199,1.0,0.0,0.0,0.0,0.0,1.0
791,Georgia,Columbus,39.9611755,-82.99879419999999,1.0,0.0,0.0,0.0,0.0,1.0
792,Georgia,Conyers,33.6676103,-84.01769039999999,0.0,1.0,0.0,0.0,1.0,2.0
793,Georgia,Georgia Institute of Technology,33.7756178,-84.39628499999999,0.0,0.0,0.0,1.0,0.0,1.0
794,Georgia,Kennesaw State University,34.0380784,-84.5815717,0.0,0.0,0.0,0.0,0.0,0.0
795,Georgia,University of Georgia,33.9480053,-83.3773221,4.0,2.0,0.0,2.0,1.0,9.0
796,Georgia,Villa Rica,33.732052,-84.9191081,0.0,1.0,0.0,0.0,0.0,1.0
797,Idaho,Bellevue,47.6101497,-122.2015159,0.0,0.0,0.0,0.0,0.0,0.0
798,Idaho,Blackfoot,43.19047090000001,-112.3449773,0.0,0.0,0.0,0.0,0.0,0.0
799,Idaho,Boise,43.6187102,-116.2146068,11.0,8.0,10.0,1.0,0.0,30.0
800,Idaho,Caldwell,40.8398218,-74.2765366,0.0,1.0,0.0,1.0,0.0,2.0
801,Idaho,Chubbuck,42.9207477,-112.4660912,0.0,0.0,0.0,0.0,1.0,1.0
802,Idaho,Coeur d'Alene,47.6776832,-116.7804664,5.0,2.0,1.0,1.0,3.0,12.0
803,Idaho,Garden City,37.9716898,-100.8726618,0.0,0.0,0.0,0.0,0.0,0.0
804,Idaho,Grangeville,45.926552,-116.1223654,0.0,0.0,0.0,0.0,0.0,0.0
805,Idaho,Hailey,43.51962880000001,-114.3153245,0.0,1.0,0.0,0.0,0.0,1.0
806,Idaho,Jerome,34.7489107,-112.1137716,0.0,0.0,1.0,0.0,0.0,1.0
807,Idaho,Kimberly,35.9668902,-95.92994499999999,0.0,0.0,0.0,1.0,0.0,1.0
808,Idaho,Lewiston,46.4004089,-117.001189,0.0,0.0,1.0,0.0,0.0,1.0
809,Idaho,Meridian,37.09024,-95.712891,0.0,0.0,0.0,0.0,1.0,1.0
810,Idaho,Montpelier,38.2188244,-78.1684568,0.0,1.0,0.0,0.0,0.0,1.0
811,Idaho,Moscow,55.755826,37.6172999,0.0,0.0,0.0,0.0,0.0,0.0
812,Idaho,Mountain Home,36.3353949,-92.381346,0.0,0.0,0.0,0.0,1.0,1.0
813,Idaho,Nampa,43.5407172,-116.5634625,2.0,4.0,3.0,1.0,2.0,12.0
814,Idaho,Osburn,32.8899087,-96.68512469999999,0.0,0.0,0.0,1.0,0.0,1.0
815,Idaho,Payette,44.0782195,-116.9337711,0.0,2.0,1.0,0.0,0.0,3.0
816,Idaho,Pocatello,42.8713032,-112.4455344,0.0,0.0,0.0,1.0,3.0,4.0
817,Idaho,Post Falls,47.7179578,-116.9515856,0.0,0.0,0.0,1.0,0.0,1.0
818,Idaho,Rexburg,43.8231096,-111.7924237,0.0,0.0,0.0,0.0,0.0,0.0
819,Idaho,Shoshone,35.97301789999999,-116.2711387,0.0,0.0,0.0,0.0,0.0,0.0
820,Idaho,Spirit Lake,46.2743029,-122.1337072,0.0,0.0,0.0,0.0,0.0,0.0
821,Idaho,St. Maries,47.3143541,-116.5626675,0.0,0.0,0.0,1.0,0.0,1.0
822,Idaho,Twin Falls,42.5558381,-114.4700518,1.0,1.0,0.0,0.0,2.0,4.0
823,Illinois,Addison,32.96179,-96.82916850000001,0.0,0.0,1.0,0.0,0.0,1.0
824,Illinois,Algonquin,42.1648947,-88.3271625,1.0,0.0,0.0,0.0,2.0,3.0
825,Illinois,Altamont,37.1903448,-95.29719279999999,1.0,0.0,0.0,0.0,0.0,1.0
826,Illinois,Arlington Heights,42.0883603,-87.98062650000001,0.0,0.0,0.0,0.0,0.0,0.0
827,Illinois,Aurora,42.5698683,-87.9353402,0.0,0.0,3.0,1.0,3.0,7.0
828,Illinois,Bartlett,41.9950276,-88.1856301,0.0,1.0,1.0,0.0,0.0,2.0
829,Illinois,Batavia,41.8500284,-88.3125738,0.0,0.0,1.0,0.0,0.0,1.0
830,Illinois,Beardstown,40.0175483,-90.42429159999999,1.0,0.0,0.0,0.0,0.0,1.0
831,Illinois,Beecher,41.34059,-87.6214286,0.0,0.0,0.0,1.0,0.0,1.0
832,Illinois,Belleville,38.5200504,-89.9839935,0.0,0.0,0.0,1.0,0.0,1.0
833,Illinois,Bellwood,41.8814197,-87.883117,1.0,0.0,0.0,0.0,0.0,1.0
834,Illinois,Berwyn,41.85058739999999,-87.7936685,0.0,1.0,0.0,1.0,3.0,5.0
835,Illinois,Bloomington,39.165325,-86.52638569999999,1.0,0.0,1.0,1.0,0.0,3.0
836,Illinois,Bradley,40.6977743,-89.6153484,0.0,0.0,0.0,0.0,3.0,3.0
837,Illinois,Braidwood,41.2650318,-88.21228230000001,0.0,0.0,0.0,0.0,1.0,1.0
838,Illinois,Cairo,30.0444196,31.2357116,0.0,0.0,1.0,0.0,0.0,1.0
839,Illinois,Canton,44.602382,-75.183458,1.0,0.0,0.0,0.0,0.0,1.0
840,Illinois,Carol Stream,41.91252859999999,-88.13479269999999,0.0,0.0,0.0,0.0,0.0,0.0
841,Illinois,Carpentersville,42.1211364,-88.2578582,1.0,0.0,0.0,0.0,0.0,1.0
842,Illinois,Centralia,40.8042541,-76.3405035,1.0,0.0,1.0,1.0,1.0,4.0
843,Illinois,Champaign,40.1164204,-88.2433829,0.0,1.0,0.0,1.0,1.0,3.0
844,Illinois,Charleston,32.7764749,-79.93105120000001,0.0,0.0,0.0,0.0,1.0,1.0
845,Illinois,Chester,53.193392,-2.893075,0.0,1.0,0.0,0.0,0.0,1.0
846,Illinois,Chicago,41.8781136,-87.6297982,5.0,25.0,27.0,19.0,26.0,102.0
847,Illinois,Chicago Ridge,41.7014217,-87.77921959999999,0.0,0.0,0.0,1.0,0.0,1.0
848,Illinois,Collinsville,38.6703266,-89.9845476,0.0,0.0,0.0,0.0,1.0,1.0
849,Illinois,Crest Hill,41.554753,-88.0986709,1.0,0.0,1.0,0.0,0.0,2.0
850,Illinois,Crete,35.240117,24.8092691,0.0,0.0,0.0,0.0,0.0,0.0
851,Illinois,Crystal Lake,42.2411344,-88.31619649999999,2.0,0.0,1.0,0.0,1.0,4.0
852,Illinois,Danville,37.8215929,-121.9999606,0.0,0.0,0.0,1.0,0.0,1.0
853,Illinois,De Kalb,41.9294736,-88.75036469999999,1.0,1.0,2.0,1.0,1.0,6.0
854,Illinois,Decatur,33.7748275,-84.2963123,1.0,0.0,0.0,0.0,0.0,1.0
855,Illinois,Des Plaines,42.0333623,-87.88339909999999,1.0,0.0,0.0,0.0,0.0,1.0
856,Illinois,Dixon,37.223352,-95.70531509999999,0.0,0.0,0.0,0.0,0.0,0.0
857,Illinois,Downers Grove,41.8089191,-88.01117459999999,0.0,0.0,0.0,0.0,1.0,1.0
858,Illinois,Effingham,39.1200418,-88.5433829,0.0,0.0,0.0,0.0,1.0,1.0
859,Illinois,Elgin,42.0354084,-88.2825668,0.0,0.0,0.0,1.0,0.0,1.0
860,Illinois,Elk Grove Village,42.0039178,-87.9703461,0.0,0.0,0.0,0.0,1.0,1.0
861,Illinois,Eureka,40.8020712,-124.1636729,0.0,0.0,1.0,0.0,0.0,1.0
862,Illinois,Evanston,42.0450722,-87.68769689999999,1.0,0.0,0.0,0.0,0.0,1.0
863,Illinois,Fairbury,40.1466169,-97.1798456,1.0,0.0,0.0,0.0,0.0,1.0
864,Illinois,Flossmoor,41.5428123,-87.6847684,0.0,0.0,0.0,0.0,1.0,1.0
865,Illinois,Galesburg,40.94781580000001,-90.3712395,0.0,0.0,1.0,0.0,0.0,1.0
866,Illinois,Geneseo,42.795896,-77.816947,0.0,0.0,0.0,1.0,0.0,1.0
867,Illinois,Glenview,42.0697509,-87.7878408,0.0,0.0,1.0,1.0,0.0,2.0
868,Illinois,Glenwood,38.9559604,-94.6290042,0.0,0.0,0.0,0.0,1.0,1.0
869,Illinois,Grayslake,42.34446639999999,-88.04174599999999,0.0,0.0,0.0,0.0,1.0,1.0
870,Illinois,Harvey,41.6100344,-87.6467131,0.0,1.0,0.0,0.0,0.0,1.0
871,Illinois,Hillsboro,45.5228939,-122.989827,0.0,0.0,1.0,0.0,0.0,1.0
872,Illinois,Hoffman Estates,42.0629915,-88.12271989999999,0.0,0.0,1.0,0.0,0.0,1.0
873,Illinois,Homewood,39.08627329999999,-120.1607425,0.0,0.0,1.0,0.0,1.0,2.0
874,Illinois,Irving,32.8140177,-96.9488945,0.0,1.0,0.0,0.0,0.0,1.0
875,Illinois,Joliet,41.525031,-88.0817251,1.0,0.0,1.0,0.0,1.0,3.0
876,Illinois,La Grange,41.8050314,-87.8692254,1.0,0.0,1.0,0.0,0.0,2.0
877,Illinois,La Salle,40.0387561,-75.15663219999999,0.0,0.0,0.0,0.0,0.0,0.0
878,Illinois,Lombard,41.8800296,-88.00784349999999,0.0,0.0,0.0,1.0,0.0,1.0
879,Illinois,Lyons,45.764043,4.835659,0.0,0.0,0.0,0.0,0.0,0.0
880,Illinois,Macomb,42.7168759,-82.82097399999999,0.0,0.0,0.0,1.0,0.0,1.0
881,Illinois,Marissa,38.2500481,-89.75009879999999,0.0,0.0,0.0,1.0,0.0,1.0
882,Illinois,Mokena,41.5261437,-87.8892189,0.0,1.0,0.0,0.0,1.0,2.0
883,Illinois,Moline,41.5067003,-90.51513419999999,0.0,1.0,0.0,0.0,0.0,1.0
884,Illinois,Monmouth,40.2804557,-74.0058114,0.0,0.0,0.0,2.0,1.0,3.0
885,Illinois,Morrison,36.711614,-95.97265399999999,0.0,0.0,0.0,0.0,0.0,0.0
886,Illinois,Morton,36.1743875,-95.98140769999999,0.0,0.0,0.0,0.0,0.0,0.0
887,Illinois,Moweaqua,39.6247614,-89.01896839999999,0.0,0.0,0.0,1.0,0.0,1.0
888,Illinois,New Lenox,41.5119761,-87.9656098,0.0,0.0,0.0,0.0,1.0,1.0
889,Illinois,Normal,40.5142026,-88.9906312,0.0,0.0,1.0,2.0,3.0,6.0
890,Illinois,North Chicago,42.325578,-87.8411818,0.0,0.0,0.0,3.0,0.0,3.0
891,Illinois,North Riverside,41.8428094,-87.8231138,0.0,0.0,0.0,1.0,0.0,1.0
892,Illinois,Northern Illinois University,41.934233,-88.774069,0.0,0.0,0.0,0.0,0.0,0.0
893,Illinois,"Northwestern University, Chicago",42.0564594,-87.67526699999999,0.0,0.0,1.0,0.0,0.0,1.0
894,Illinois,"Northwestern University, Evanston",42.0564594,-87.67526699999999,0.0,3.0,0.0,0.0,0.0,3.0
895,Illinois,O'Fallon,38.8106075,-90.69984769999999,0.0,0.0,1.0,0.0,0.0,1.0
896,Illinois,Oak Forest,41.6028116,-87.74393839999999,1.0,0.0,0.0,1.0,0.0,2.0
897,Illinois,Oak Lawn,41.719978,-87.7479528,0.0,0.0,1.0,0.0,1.0,2.0
898,Illinois,Olney,39.1531627,-77.066923,0.0,0.0,0.0,0.0,0.0,0.0
899,Illinois,Orland Park,41.6303103,-87.85394250000002,0.0,0.0,0.0,1.0,0.0,1.0
900,Illinois,Palestine,31.952162,35.233154,0.0,0.0,1.0,0.0,0.0,1.0
901,Illinois,Pekin,40.5675388,-89.640658,0.0,2.0,0.0,0.0,1.0,3.0
902,Illinois,Peoria,40.6936488,-89.5889864,1.0,3.0,0.0,0.0,1.0,5.0
903,Illinois,Plainfield,39.70421229999999,-86.39943869999999,0.0,0.0,0.0,0.0,1.0,1.0
904,Illinois,Plano,33.0198431,-96.6988856,0.0,0.0,0.0,0.0,0.0,0.0
905,Illinois,Quincy,42.2528772,-71.0022705,1.0,1.0,0.0,0.0,0.0,2.0
906,Illinois,Rantoul,40.3083672,-88.1558785,0.0,0.0,1.0,1.0,0.0,2.0
907,Illinois,Robinson,37.691072,-97.27961719999999,0.0,0.0,0.0,0.0,1.0,1.0
908,Illinois,Rockford,42.2711311,-89.0939952,6.0,2.0,1.0,2.0,3.0,14.0
909,Illinois,Rolling Meadows,42.0841936,-88.0131275,0.0,0.0,0.0,1.0,0.0,1.0
910,Illinois,Roscoe,42.4133505,-89.0092741,0.0,1.0,0.0,0.0,0.0,1.0
911,Illinois,Round Lake Park,42.3569661,-88.0767474,0.0,0.0,0.0,1.0,0.0,1.0
912,Illinois,Salem,42.51954,-70.8967155,0.0,0.0,0.0,0.0,1.0,1.0
913,Illinois,Schaumburg,42.0333607,-88.0834059,0.0,0.0,1.0,0.0,0.0,1.0
914,Illinois,Shiloh,36.1705196,-94.1557112,0.0,0.0,1.0,0.0,0.0,1.0
915,Illinois,Silvis,41.51225609999999,-90.4151301,0.0,0.0,0.0,1.0,0.0,1.0
916,Illinois,Skokie,42.0324025,-87.7416246,1.0,3.0,0.0,1.0,0.0,5.0
917,Illinois,"Southern Illinois University, Carbondale",37.7090577,-89.22491339999999,0.0,0.0,0.0,0.0,1.0,1.0
918,Illinois,Springfield,37.2089572,-93.29229889999999,8.0,5.0,2.0,2.0,2.0,19.0
919,Illinois,St. Charles,39.2107744,-94.5703276,0.0,1.0,0.0,0.0,0.0,1.0
920,Illinois,Sterling,37.09024,-95.712891,0.0,0.0,0.0,0.0,0.0,0.0
921,Illinois,Streamwood,42.0255827,-88.17840849999999,0.0,0.0,1.0,0.0,0.0,1.0
922,Illinois,Summit,40.7146376,-74.3646122,1.0,0.0,0.0,0.0,0.0,1.0
923,Illinois,Tinley Park,41.5731442,-87.7932939,1.0,0.0,0.0,0.0,0.0,1.0
924,Illinois,Tuscola,39.7991985,-88.28310379999999,0.0,0.0,0.0,0.0,0.0,0.0
925,Illinois,"University of Illinois, Springfield",39.7290207,-89.61765400000002,0.0,1.0,0.0,0.0,0.0,1.0
926,Illinois,"University of Illinois, Urbana",40.1019523,-88.2271615,0.0,0.0,0.0,0.0,0.0,0.0
927,Illinois,Urbana,40.1105875,-88.2072697,1.0,2.0,1.0,1.0,0.0,5.0
928,Illinois,Wamac,38.5089381,-89.1406267,0.0,0.0,1.0,0.0,0.0,1.0
929,Illinois,West Chicago,41.8847507,-88.2039607,0.0,0.0,1.0,0.0,1.0,2.0
930,Illinois,West Frankfort,37.8985966,-88.9233622,1.0,0.0,0.0,0.0,0.0,1.0
931,Illinois,Western Illinois University,40.4726649,-90.685397,2.0,0.0,0.0,0.0,0.0,2.0
932,Illinois,Wheeling,40.0639616,-80.7209149,0.0,0.0,0.0,1.0,0.0,1.0
933,Illinois,Winnetka,42.10808340000001,-87.735895,1.0,0.0,0.0,0.0,0.0,1.0
934,Illinois,Wood River,38.861159,-90.0976069,1.0,0.0,1.0,0.0,0.0,2.0
935,Illinois,Woodstock,42.0409247,-74.1181971,0.0,0.0,0.0,0.0,1.0,1.0
936,Indiana,Anderson,34.5034394,-82.6501332,0.0,0.0,1.0,0.0,0.0,1.0
937,Indiana,Ball State University,40.2061028,-85.40698599999999,0.0,0.0,0.0,0.0,1.0,1.0
938,Indiana,Bloomington,39.165325,-86.52638569999999,7.0,8.0,8.0,6.0,7.0,36.0
939,Indiana,Bloomington,39.165325,-86.52638569999999,7.0,8.0,8.0,2.0,7.0,32.0
940,Indiana,Columbus,39.9611755,-82.99879419999999,0.0,0.0,0.0,0.0,0.0,0.0
941,Indiana,Fishers,39.9567548,-86.01335,0.0,0.0,0.0,0.0,0.0,0.0
942,Indiana,Fort Wayne,41.079273,-85.1393513,0.0,1.0,2.0,1.0,2.0,6.0
943,Indiana,Franklin,35.9250637,-86.8688899,1.0,1.0,0.0,0.0,0.0,2.0
944,Indiana,Goshen,41.5822716,-85.8344383,0.0,0.0,0.0,0.0,0.0,0.0
945,Indiana,Hammond,30.5043583,-90.46119949999999,1.0,0.0,0.0,2.0,0.0,3.0
946,Indiana,"Indiana University, Indianapolis",39.7738832,-86.1763393,0.0,0.0,0.0,0.0,1.0,1.0
947,Indiana,"Indiana University, Southeast",38.3448964,-85.8196904,8.0,0.0,0.0,0.0,0.0,8.0
948,Indiana,Indianapolis,39.768403,-86.158068,0.0,37.0,12.0,15.0,20.0,84.0
949,Indiana,Indianapolis,39.768403,-86.158068,0.0,37.0,12.0,1.0,20.0,70.0
950,Indiana,La Porte,29.6657838,-95.0193728,0.0,0.0,0.0,0.0,2.0,2.0
951,Indiana,Mishawaka,40.687525,-105.36556,1.0,0.0,0.0,0.0,0.0,1.0
952,Indiana,Muncie,40.1933767,-85.3863599,0.0,0.0,0.0,1.0,1.0,2.0
953,Indiana,Munster,51.9606649,7.6261347,0.0,0.0,0.0,0.0,0.0,0.0
954,Indiana,Plainfield,39.70421229999999,-86.39943869999999,0.0,0.0,0.0,1.0,0.0,1.0
955,Indiana,Purdue University,40.4237054,-86.92119459999999,6.0,2.0,1.0,0.0,1.0,10.0
956,Indiana,Seymour,44.5149879,-88.3303798,0.0,0.0,0.0,0.0,0.0,0.0
957,Indiana,Shelbyville,39.5214373,-85.7769238,0.0,0.0,4.0,0.0,0.0,4.0
958,Indiana,South Bend,41.6763545,-86.25198979999999,0.0,2.0,0.0,6.0,10.0,18.0
959,Indiana,Westville,40.7418585,-74.0000432,0.0,0.0,0.0,0.0,0.0,0.0
960,Iowa,Altoona,40.5186809,-78.3947359,0.0,0.0,0.0,0.0,0.0,0.0
961,Iowa,Ames,42.0307812,-93.63191309999999,0.0,2.0,1.0,0.0,0.0,3.0
962,Iowa,Atlantic,36.1404528,-95.8860103,0.0,0.0,1.0,0.0,0.0,1.0
963,Iowa,Bettendorf,41.56084999999999,-90.48344,0.0,0.0,2.0,0.0,0.0,2.0
964,Iowa,Boone,36.216795,-81.6745517,0.0,0.0,0.0,0.0,1.0,1.0
965,Iowa,Cedar Rapids,41.9778795,-91.6656232,0.0,0.0,1.0,0.0,0.0,1.0
966,Iowa,Clinton,41.2882208,-72.5288034,0.0,0.0,0.0,0.0,0.0,0.0
967,Iowa,Council Bluffs,41.2619444,-95.8608333,1.0,0.0,1.0,0.0,0.0,2.0
968,Iowa,De Witt,42.842256,-84.56914870000001,0.0,0.0,0.0,1.0,0.0,1.0
969,Iowa,Des Moines,41.6005448,-93.6091064,0.0,0.0,1.0,1.0,2.0,4.0
970,Iowa,Dubuque,42.5005583,-90.66457179999999,1.0,0.0,0.0,0.0,1.0,2.0
971,Iowa,Fort Dodge,42.4974694,-94.16801579999999,0.0,0.0,1.0,0.0,0.0,1.0
972,Iowa,Grinnell,41.74340919999999,-92.7232456,0.0,0.0,0.0,0.0,0.0,0.0
973,Iowa,Indianola,41.3580484,-93.5574376,0.0,0.0,0.0,0.0,0.0,0.0
974,Iowa,Iowa City,41.6611277,-91.5301683,0.0,0.0,0.0,0.0,3.0,3.0
975,Iowa,Iowa State University,42.0266187,-93.6464654,0.0,0.0,1.0,1.0,1.0,3.0
976,Iowa,Newton,42.3370413,-71.20922139999999,0.0,0.0,0.0,0.0,1.0,1.0
977,Iowa,North Liberty,41.739482,-91.60809739999999,0.0,0.0,0.0,0.0,1.0,1.0
978,Iowa,Oskaloosa,41.2916728,-92.6493595,0.0,0.0,0.0,0.0,1.0,1.0
979,Iowa,University of Iowa,41.6626963,-91.5548998,2.0,0.0,0.0,0.0,2.0,4.0
980,Iowa,Waterloo,50.71469,4.3991,0.0,1.0,0.0,0.0,0.0,1.0
981,Iowa,West Des Moines,41.5772115,-93.711332,0.0,0.0,0.0,0.0,0.0,0.0
982,Kansas,Abilene,32.4487364,-99.73314390000002,0.0,0.0,0.0,0.0,0.0,0.0
983,Kansas,Andover,42.6583356,-71.1367953,0.0,0.0,0.0,0.0,1.0,1.0
984,Kansas,Arkansas City,37.0619736,-97.0383712,0.0,2.0,0.0,0.0,0.0,2.0
985,Kansas,Basehor,39.1416692,-94.9385762,1.0,0.0,0.0,0.0,0.0,1.0
986,Kansas,Baxter Springs,37.0236759,-94.73550420000001,0.0,0.0,0.0,1.0,0.0,1.0
987,Kansas,Belleville,38.5200504,-89.9839935,0.0,1.0,0.0,0.0,0.0,1.0
988,Kansas,Beloit,42.5083482,-89.03177649999999,1.0,0.0,0.0,0.0,0.0,1.0
989,Kansas,Burlington,37.6780742,-97.2392359,0.0,0.0,1.0,0.0,0.0,1.0
990,Kansas,Chanute,37.6792135,-95.4572034,0.0,0.0,0.0,0.0,1.0,1.0
991,Kansas,Cheney,47.4873895,-117.5757622,0.0,1.0,0.0,0.0,0.0,1.0
992,Kansas,Clay Center,38.3481681,-81.6297007,0.0,0.0,0.0,1.0,0.0,1.0
993,Kansas,Coffeyville,37.0373005,-95.6163665,0.0,0.0,0.0,0.0,0.0,0.0
994,Kansas,Colby,44.5638691,-69.6626362,0.0,0.0,0.0,1.0,0.0,1.0
995,Kansas,Columbus,39.9611755,-82.99879419999999,1.0,0.0,0.0,0.0,0.0,1.0
996,Kansas,Concordia,30.4190038,-97.8381711,1.0,0.0,0.0,0.0,0.0,1.0
997,Kansas,Derby,37.5455735,-97.2689331,2.0,0.0,0.0,1.0,0.0,3.0
998,Kansas,Dodge City,37.7527982,-100.0170787,1.0,1.0,1.0,2.0,2.0,7.0
999,Kansas,Edwardsville,38.8114364,-89.95315699999999,0.0,0.0,0.0,0.0,1.0,1.0
1000,Kansas,El Dorado,37.8167564,-96.8869965,0.0,0.0,0.0,0.0,1.0,1.0
1001,Kansas,Elwood,40.8453761,-73.3351179,0.0,0.0,1.0,1.0,1.0,3.0
1002,Kansas,Emporia,38.403903,-96.18166260000001,0.0,0.0,0.0,0.0,0.0,0.0
1003,Kansas,Eudora,38.9433372,-95.09858070000001,0.0,0.0,0.0,0.0,0.0,0.0
1004,Kansas,Fort Scott,37.8397626,-94.7082951,1.0,0.0,0.0,0.0,0.0,1.0
1005,Kansas,Garden City,37.9716898,-100.8726618,0.0,0.0,0.0,1.0,0.0,1.0
1006,Kansas,Gardner,42.5750883,-71.998133,0.0,0.0,0.0,0.0,0.0,0.0
1007,Kansas,Goddard,37.6471026,-97.56890609999999,0.0,0.0,1.0,0.0,0.0,1.0
1008,Kansas,Great Bend,38.3644567,-98.7648073,0.0,0.0,0.0,1.0,0.0,1.0
1009,Kansas,Hays,27.9515828,-82.51676719999999,1.0,1.0,1.0,0.0,1.0,4.0
1010,Kansas,Haysville,37.5644615,-97.3522675,1.0,0.0,1.0,0.0,0.0,2.0
1011,Kansas,Hesston,38.1383437,-97.43142669999999,1.0,0.0,0.0,0.0,0.0,1.0
1012,Kansas,Hiawatha,42.0491958,-91.6815252,0.0,0.0,0.0,0.0,1.0,1.0
1013,Kansas,Hoisington,38.5180672,-98.7781394,0.0,0.0,0.0,1.0,0.0,1.0
1014,Kansas,Hutchinson,38.0608445,-97.92977429999999,1.0,3.0,4.0,2.0,0.0,10.0
1015,Kansas,Independence,39.0911161,-94.41550679999999,3.0,0.0,0.0,0.0,1.0,4.0
1016,Kansas,Iola,37.9244799,-95.3999814,0.0,1.0,0.0,1.0,0.0,2.0
1017,Kansas,Junction City,39.0286093,-96.83139779999999,0.0,0.0,1.0,0.0,0.0,1.0
1018,Kansas,Kansas City,39.0997265,-94.5785667,0.0,0.0,1.0,0.0,0.0,1.0
1019,Kansas,Kansas State University,39.1974437,-96.5847249,0.0,0.0,0.0,0.0,0.0,0.0
1020,Kansas,Lansing,42.732535,-84.5555347,0.0,2.0,0.0,0.0,0.0,2.0
1021,Kansas,Larned,38.18056929999999,-99.09871299999999,0.0,1.0,0.0,0.0,0.0,1.0
1022,Kansas,Lawrence,42.7070354,-71.1631137,10.0,7.0,9.0,0.0,0.0,26.0
1023,Kansas,Leavenworth,47.5962326,-120.6614765,1.0,1.0,4.0,1.0,0.0,7.0
1024,Kansas,Leawood,38.966673,-94.6169012,0.0,0.0,0.0,0.0,0.0,0.0
1025,Kansas,Lenexa,38.9536174,-94.73357089999999,0.0,1.0,0.0,0.0,1.0,2.0
1026,Kansas,Liberal,37.5581024,-94.51995529999999,1.0,0.0,0.0,1.0,0.0,2.0
1027,Kansas,Lindsborg,38.5736176,-97.67448379999999,1.0,0.0,0.0,0.0,0.0,1.0
1028,Kansas,Louisburg,36.0990393,-78.30110599999999,0.0,0.0,0.0,0.0,0.0,0.0
1029,Kansas,Main Campus,33.56135,-117.7726345,2.0,0.0,0.0,0.0,0.0,2.0
1030,Kansas,McPherson,38.3708415,-97.66420869999999,0.0,1.0,0.0,0.0,0.0,1.0
1031,Kansas,Merriam,39.0236165,-94.6935701,1.0,0.0,0.0,0.0,0.0,1.0
1032,Kansas,Mulvane,37.474464,-97.2439325,0.0,1.0,2.0,0.0,0.0,3.0
1033,Kansas,Newton,42.3370413,-71.20922139999999,0.0,0.0,0.0,2.0,2.0,4.0
1034,Kansas,Oakley,36.0630409,-95.8808304,0.0,0.0,0.0,0.0,1.0,1.0
1035,Kansas,Osawatomie,38.4972372,-94.9505207,0.0,0.0,1.0,0.0,0.0,1.0
1036,Kansas,Ottawa,45.4215296,-75.69719309999999,0.0,0.0,1.0,0.0,1.0,2.0
1037,Kansas,Overland Park,38.9822282,-94.6707917,0.0,0.0,1.0,4.0,2.0,7.0
1038,Kansas,Paola,38.5722353,-94.8791294,0.0,0.0,1.0,0.0,0.0,1.0
1039,Kansas,Parsons,37.34033840000001,-95.2610838,1.0,2.0,0.0,0.0,0.0,3.0
1040,Kansas,Pittsburg,38.0279762,-121.8846806,1.0,1.0,0.0,0.0,1.0,3.0
1041,Kansas,Pittsburg State University,37.3902857,-94.6915709,1.0,0.0,0.0,0.0,0.0,1.0
1042,Kansas,Pratt,40.6912807,-73.962537,1.0,1.0,0.0,0.0,1.0,3.0
1043,Kansas,Protection,36.8774191,-94.8761325,0.0,0.0,0.0,0.0,0.0,0.0
1044,Kansas,Salina,38.8402805,-97.61142369999999,4.0,0.0,1.0,3.0,3.0,11.0
1045,Kansas,Shawnee,39.02284849999999,-94.7151865,3.0,0.0,0.0,0.0,0.0,3.0
1046,Kansas,Topeka,39.0473451,-95.67515759999999,0.0,0.0,0.0,1.0,0.0,1.0
1047,Kansas,Valley Center,33.2183701,-117.0341967,0.0,0.0,0.0,0.0,0.0,0.0
1048,Kansas,Washburn University,39.0333113,-95.7017075,0.0,0.0,0.0,0.0,1.0,1.0
1049,Kansas,Wellington,-41.2864603,174.776236,0.0,0.0,1.0,0.0,0.0,1.0
1050,Kansas,Wichita,37.68717609999999,-97.33005299999999,17.0,11.0,9.0,10.0,5.0,52.0
1051,Kansas,Wichita State University,37.7193933,-97.29286929999999,0.0,0.0,0.0,0.0,1.0,1.0
1052,Kansas,Winfield,37.2397486,-96.9955918,0.0,0.0,0.0,1.0,0.0,1.0
1053,Kentucky,Alexandria,31.2000924,29.9187387,0.0,0.0,0.0,0.0,1.0,1.0
1054,Kentucky,Anchorage,61.2180556,-149.9002778,0.0,0.0,0.0,0.0,0.0,0.0
1055,Kentucky,Ashland,40.8619296,-82.32305099999999,0.0,3.0,1.0,3.0,0.0,7.0
1056,Kentucky,Audubon Park,29.9255966,-90.1286501,0.0,0.0,0.0,0.0,1.0,1.0
1057,Kentucky,Augusta,33.4734978,-82.0105148,0.0,0.0,1.0,0.0,0.0,1.0
1058,Kentucky,Barbourville,36.8664765,-83.8888138,1.0,0.0,0.0,0.0,0.0,1.0
1059,Kentucky,Bardstown,37.8092279,-85.46690249999999,7.0,0.0,0.0,2.0,0.0,9.0
1060,Kentucky,Bellevue,47.6101497,-122.2015159,1.0,0.0,0.0,0.0,1.0,2.0
1061,Kentucky,Benton,36.2661518,-94.479976,0.0,0.0,0.0,0.0,0.0,0.0
1062,Kentucky,Berea,37.568694,-84.2963223,0.0,0.0,0.0,0.0,2.0,2.0
1063,Kentucky,Bowling Green,41.3797788,-83.6300826,8.0,6.0,5.0,5.0,6.0,30.0
1064,Kentucky,Brownsville,25.9017472,-97.4974838,0.0,0.0,0.0,0.0,0.0,0.0
1065,Kentucky,Bullitt,37.7971154,-122.4222362,3.0,0.0,0.0,0.0,0.0,3.0
1066,Kentucky,Burkesville,36.7903399,-85.3705186,0.0,1.0,0.0,0.0,0.0,1.0
1067,Kentucky,Cadiz,36.5270612,-6.2885962,0.0,0.0,1.0,0.0,0.0,1.0
1068,Kentucky,Campbellsville,37.3433974,-85.3419069,2.0,0.0,1.0,0.0,0.0,3.0
1069,Kentucky,Carlisle,40.2010241,-77.20027449999999,0.0,1.0,0.0,0.0,0.0,1.0
1070,Kentucky,Carrollton,32.9756415,-96.8899636,0.0,1.0,2.0,1.0,0.0,4.0
1071,Kentucky,Cave City,37.1367171,-85.9569195,0.0,0.0,0.0,0.0,1.0,1.0
1072,Kentucky,Cloverport,37.8333901,-86.6327615,0.0,0.0,0.0,0.0,1.0,1.0
1073,Kentucky,Cold Spring,41.4200937,-73.954583,0.0,0.0,2.0,0.0,0.0,2.0
1074,Kentucky,Corbin,36.9486986,-84.0968761,0.0,2.0,0.0,1.0,0.0,3.0
1075,Kentucky,Covington,30.4754702,-90.1009108,5.0,6.0,5.0,2.0,4.0,22.0
1076,Kentucky,Cynthiana,38.3903526,-84.2941013,0.0,1.0,0.0,0.0,1.0,2.0
1077,Kentucky,Danville,37.8215929,-121.9999606,1.0,0.0,0.0,0.0,0.0,1.0
1078,Kentucky,Dawson Springs,37.1672684,-87.6925074,0.0,0.0,0.0,0.0,0.0,0.0
1079,Kentucky,Dayton,39.7589478,-84.1916069,0.0,0.0,0.0,2.0,0.0,2.0
1080,Kentucky,Eastern Kentucky University,37.7353214,-84.298672,0.0,0.0,1.0,1.0,1.0,3.0
1081,Kentucky,Elizabethtown,37.7030646,-85.8649408,1.0,2.0,0.0,0.0,0.0,3.0
1082,Kentucky,Elkton,39.60677889999999,-75.83327179999999,0.0,1.0,1.0,0.0,0.0,2.0
1083,Kentucky,Elsmere,39.7392796,-75.59798119999999,0.0,1.0,0.0,0.0,2.0,3.0
1084,Kentucky,Eminence,49.263087,-123.115867,1.0,0.0,0.0,0.0,0.0,1.0
1085,Kentucky,Erlanger,39.0167275,-84.60077729999999,0.0,0.0,0.0,3.0,0.0,3.0
1086,Kentucky,Falmouth,41.5532208,-70.60858859999999,1.0,0.0,0.0,0.0,0.0,1.0
1087,Kentucky,Flatwoods,38.7231548,-80.6498166,0.0,1.0,0.0,0.0,0.0,1.0
1088,Kentucky,Flemingsburg,38.4222995,-83.73380759999999,1.0,0.0,0.0,0.0,0.0,1.0
1089,Kentucky,Florence,43.7695604,11.2558136,1.0,1.0,2.0,1.0,0.0,5.0
1090,Kentucky,Fort Mitchell,32.341536,-85.0215982,0.0,0.0,0.0,0.0,0.0,0.0
1091,Kentucky,Fort Thomas,39.07506070000001,-84.4471633,0.0,0.0,0.0,0.0,0.0,0.0
1092,Kentucky,Frankfort,38.2009055,-84.87328350000001,2.0,2.0,0.0,2.0,2.0,8.0
1093,Kentucky,Franklin,35.9250637,-86.8688899,0.0,0.0,1.0,1.0,2.0,4.0
1094,Kentucky,Fulton,44.9121918,-93.32126459999999,2.0,0.0,0.0,0.0,0.0,2.0
1095,Kentucky,Georgetown,38.9097057,-77.06535650000001,1.0,2.0,2.0,5.0,3.0,13.0
1096,Kentucky,Glasgow,55.864237,-4.251806,0.0,0.0,0.0,2.0,1.0,3.0
1097,Kentucky,Graymoor-Devondale,38.273126,-85.6230166,1.0,0.0,0.0,0.0,0.0,1.0
1098,Kentucky,Harrodsburg,37.762298,-84.8432852,1.0,1.0,1.0,0.0,0.0,3.0
1099,Kentucky,Hazard,37.2675021,-83.1829315,0.0,1.0,1.0,0.0,0.0,2.0
1100,Kentucky,Henderson,36.0395247,-114.9817213,0.0,2.0,2.0,2.0,2.0,8.0
1101,Kentucky,Highland Heights,41.5519954,-81.47845219999999,0.0,0.0,0.0,0.0,0.0,0.0
1102,Kentucky,Hillview,42.9222768,-78.69649629999999,0.0,0.0,0.0,0.0,0.0,0.0
1103,Kentucky,Hopkinsville,36.8656008,-87.4886186,4.0,1.0,3.0,0.0,5.0,13.0
1104,Kentucky,Independence,39.0911161,-94.41550679999999,1.0,0.0,0.0,0.0,0.0,1.0
1105,Kentucky,Indian Hills,41.044962,-92.394464,0.0,0.0,0.0,0.0,0.0,0.0
1106,Kentucky,Jamestown,37.2116383,-76.7752102,0.0,0.0,1.0,0.0,0.0,1.0
1107,Kentucky,Jeffersontown,38.1942356,-85.5644033,0.0,0.0,2.0,0.0,0.0,2.0
1108,Kentucky,La Grange,41.8050314,-87.8692254,0.0,0.0,0.0,0.0,0.0,0.0
1109,Kentucky,Lakeside Park-Crestview Hills,39.0258968,-84.57433789999999,0.0,0.0,0.0,0.0,0.0,0.0
1110,Kentucky,Lancaster,40.0378755,-76.3055144,1.0,0.0,0.0,0.0,1.0,2.0
1111,Kentucky,Lebanon,33.854721,35.862285,0.0,0.0,1.0,0.0,0.0,1.0
1112,Kentucky,Leitchfield,37.4800544,-86.2938637,0.0,1.0,0.0,0.0,0.0,1.0
1113,Kentucky,Lexington,38.0405837,-84.5037164,28.0,20.0,17.0,10.0,26.0,101.0
1114,Kentucky,London,51.5073509,-0.1277583,0.0,0.0,1.0,0.0,0.0,1.0
1115,Kentucky,Louisa,37.9925909,-77.973865,0.0,0.0,0.0,0.0,0.0,0.0
1116,Kentucky,Louisville Metro,38.2526647,-85.7584557,6.0,7.0,3.0,9.0,5.0,30.0
1117,Kentucky,Loyall,36.8520327,-83.3540718,0.0,0.0,0.0,0.0,1.0,1.0
1118,Kentucky,Ludlow,42.1600936,-72.47591899999999,0.0,1.0,1.0,0.0,0.0,2.0
1119,Kentucky,Lynnview,38.1784029,-85.7096832,0.0,0.0,0.0,1.0,0.0,1.0
1120,Kentucky,Madisonville,30.9499111,-95.9116188,0.0,1.0,0.0,0.0,2.0,3.0
1121,Kentucky,Mayfield,43.7741804,-79.7823124,0.0,0.0,1.0,5.0,2.0,8.0
1122,Kentucky,Maysville,40.7441439,-73.9895597,1.0,0.0,2.0,0.0,0.0,3.0
1123,Kentucky,Middlesboro,36.6072567,-83.7142848,1.0,0.0,0.0,0.0,0.0,1.0
1124,Kentucky,Monticello,38.0086043,-78.4531994,1.0,0.0,0.0,1.0,0.0,2.0
1125,Kentucky,Morehead,38.1839705,-83.4326841,1.0,1.0,0.0,0.0,0.0,2.0
1126,Kentucky,Morehead State University,38.1888804,-83.4311778,0.0,1.0,1.0,0.0,0.0,2.0
1127,Kentucky,Morgantown,39.629526,-79.95589679999999,0.0,0.0,0.0,0.0,0.0,0.0
1128,Kentucky,Mount Sterling,38.0564679,-83.9432556,1.0,0.0,0.0,0.0,0.0,1.0
1129,Kentucky,Mount Washington,44.27058539999999,-71.3032723,1.0,1.0,0.0,0.0,3.0,5.0
1130,Kentucky,Murray,36.6103334,-88.31476099999999,2.0,1.0,1.0,0.0,1.0,5.0
1131,Kentucky,Murray State University,36.6163842,-88.3214979,2.0,0.0,0.0,1.0,0.0,3.0
1132,Kentucky,Newport,41.4901024,-71.3128285,1.0,5.0,3.0,2.0,0.0,11.0
1133,Kentucky,Nicholasville,37.8806341,-84.5729961,2.0,0.0,1.0,1.0,5.0,9.0
1134,Kentucky,Northern Kentucky University,39.0318034,-84.4643828,0.0,0.0,0.0,1.0,0.0,1.0
1135,Kentucky,Northfield,44.4582983,-93.161604,1.0,0.0,0.0,0.0,0.0,1.0
1136,Kentucky,Oak Grove,39.0050073,-94.12939089999999,0.0,1.0,0.0,1.0,0.0,2.0
1137,Kentucky,Owensboro,37.7719074,-87.1111676,4.0,3.0,4.0,3.0,4.0,18.0
1138,Kentucky,Owingsville,38.1448015,-83.7640847,0.0,0.0,1.0,1.0,0.0,2.0
1139,Kentucky,Paducah,37.0833893,-88.6000478,3.0,1.0,4.0,1.0,2.0,11.0
1140,Kentucky,Paris,48.856614,2.3522219,0.0,1.0,1.0,1.0,0.0,3.0
1141,Kentucky,Park Hills,37.854218,-90.51818039999999,1.0,0.0,0.0,0.0,0.0,1.0
1142,Kentucky,Pembroke,34.6801626,-79.1950373,0.0,0.0,0.0,1.0,0.0,1.0
1143,Kentucky,Prestonsburg,37.6656527,-82.7715486,1.0,0.0,0.0,0.0,0.0,1.0
1144,Kentucky,Princeton,40.3572976,-74.6672226,1.0,0.0,0.0,2.0,0.0,3.0
1145,Kentucky,Raceland,40.4797271,-111.9108907,0.0,0.0,0.0,0.0,0.0,0.0
1146,Kentucky,Radcliff,37.8403456,-85.9491298,1.0,2.0,0.0,0.0,3.0,6.0
1147,Kentucky,Ravenna,44.4183598,12.2035294,0.0,1.0,0.0,0.0,0.0,1.0
1148,Kentucky,Richmond,37.5407246,-77.4360481,1.0,1.0,3.0,0.0,1.0,6.0
1149,Kentucky,Russell Springs,37.0561788,-85.0885667,0.0,0.0,1.0,0.0,0.0,1.0
1150,Kentucky,Russellville,35.2784173,-93.1337856,0.0,1.0,1.0,0.0,0.0,2.0
1151,Kentucky,Scottsville,37.798754,-78.4955648,0.0,0.0,0.0,1.0,0.0,1.0
1152,Kentucky,Shelbyville,39.5214373,-85.7769238,4.0,4.0,0.0,0.0,2.0,10.0
1153,Kentucky,Shepherdsville,37.9883991,-85.7157924,2.0,0.0,1.0,2.0,0.0,5.0
1154,Kentucky,Shively,38.2000701,-85.8227413,1.0,1.0,1.0,2.0,0.0,5.0
1155,Kentucky,Simpsonville,34.7370639,-82.25428339999999,0.0,0.0,0.0,1.0,0.0,1.0
1156,Kentucky,Somerset,37.7206321,-97.2649486,2.0,0.0,1.0,0.0,0.0,3.0
1157,Kentucky,St. Matthews,39.0172981,-95.66471539999999,0.0,2.0,0.0,0.0,3.0,5.0
1158,Kentucky,Stanford,37.42410599999999,-122.1660756,0.0,0.0,1.0,0.0,0.0,1.0
1159,Kentucky,Stanton,33.8028875,-117.9931203,0.0,0.0,0.0,0.0,0.0,0.0
1160,Kentucky,Taylor Mill,38.9975616,-84.4963305,1.0,0.0,0.0,2.0,0.0,3.0
1161,Kentucky,Taylorsville,40.66772479999999,-111.9388258,0.0,0.0,0.0,0.0,0.0,0.0
1162,Kentucky,University of Kentucky,38.0306511,-84.5039697,0.0,0.0,1.0,2.0,1.0,4.0
1163,Kentucky,University of Louisville,38.2122761,-85.75850229999999,0.0,0.0,0.0,1.0,0.0,1.0
1164,Kentucky,Vanceburg,38.599243,-83.3187952,1.0,0.0,0.0,0.0,0.0,1.0
1165,Kentucky,Versailles,48.8048649,2.1203554,1.0,0.0,1.0,0.0,1.0,3.0
1166,Kentucky,Vine Grove,37.8100674,-85.98135239999999,0.0,1.0,1.0,0.0,0.0,2.0
1167,Kentucky,West Buechel,38.197014,-85.66329379999999,1.0,0.0,0.0,0.0,0.0,1.0
1168,Kentucky,Western Kentucky University,36.9853543,-86.456138,0.0,0.0,0.0,0.0,1.0,1.0
1169,Kentucky,Williamsburg,37.2707022,-76.7074571,0.0,1.0,0.0,0.0,0.0,1.0
1170,Kentucky,Williamstown,42.7120196,-73.20368979999999,0.0,0.0,0.0,0.0,0.0,0.0
1171,Kentucky,Winchester,39.1856597,-78.1633341,4.0,5.0,0.0,1.0,3.0,13.0
1172,Louisiana,Baton Rouge,30.4514677,-91.18714659999999,0.0,0.0,0.0,0.0,2.0,2.0
1173,Louisiana,Bernice,32.8220876,-92.6579295,0.0,0.0,1.0,0.0,0.0,1.0
1174,Louisiana,Harahan,29.9404826,-90.2031313,0.0,0.0,1.0,0.0,0.0,1.0
1175,Louisiana,Mamou,30.6338092,-92.41929929999999,0.0,0.0,0.0,1.0,0.0,1.0
1176,Louisiana,Natchitoches,31.7607195,-93.08627489999999,0.0,0.0,0.0,1.0,0.0,1.0
1177,Louisiana,New Orleans,29.95106579999999,-90.0715323,1.0,2.0,0.0,2.0,3.0,8.0
1178,Louisiana,Shreveport,32.5251516,-93.7501789,0.0,0.0,0.0,1.0,0.0,1.0
1179,Louisiana,Thibodaux,29.7957633,-90.82287099999999,0.0,0.0,0.0,0.0,1.0,1.0
1180,Louisiana,University of New Orleans,30.0285959,-90.0660365,0.0,1.0,0.0,0.0,0.0,1.0
1181,Louisiana,Vinton,42.1646477,-92.01856509999999,0.0,0.0,0.0,1.0,0.0,1.0
1182,Louisiana,Westlake,38.9445104,-94.7464675,0.0,0.0,0.0,1.0,1.0,2.0
1183,Maine,Auburn,32.6098566,-85.48078249999999,1.0,2.0,0.0,0.0,0.0,3.0
1184,Maine,Augusta,33.4734978,-82.0105148,2.0,0.0,2.0,2.0,0.0,6.0
1185,Maine,Baileyville,45.1815281,-67.441251,1.0,0.0,0.0,0.0,0.0,1.0
1186,Maine,Bangor,44.8016128,-68.7712257,0.0,0.0,0.0,0.0,0.0,0.0
1187,Maine,Bar Harbor,44.3876119,-68.2039123,1.0,0.0,0.0,0.0,0.0,1.0
1188,Maine,Bath,36.3134223,-95.62155039999999,0.0,0.0,1.0,0.0,0.0,1.0
1189,Maine,Belfast,54.59728500000001,-5.93012,0.0,0.0,0.0,0.0,0.0,0.0
1190,Maine,Biddeford,43.4925843,-70.45338439999999,0.0,0.0,0.0,0.0,0.0,0.0
1191,Maine,Brewer,44.7967378,-68.7614246,0.0,0.0,0.0,1.0,0.0,1.0
1192,Maine,Cape Elizabeth,43.563696,-70.2000467,0.0,1.0,0.0,0.0,0.0,1.0
1193,Maine,Ellsworth,44.7321897,-92.4874124,0.0,1.0,0.0,0.0,0.0,1.0
1194,Maine,Farmington,36.72805830000001,-108.2186856,0.0,0.0,0.0,0.0,0.0,0.0
1195,Maine,Gouldsboro,44.47852,-68.039543,0.0,0.0,0.0,0.0,0.0,0.0
1196,Maine,Hampden,39.33337059999999,-76.632607,0.0,0.0,0.0,0.0,0.0,0.0
1197,Maine,Houlton,46.1261806,-67.8402316,1.0,0.0,0.0,0.0,0.0,1.0
1198,Maine,Islesboro,44.29388549999999,-68.9085778,0.0,0.0,0.0,0.0,0.0,0.0
1199,Maine,Kittery,43.0881256,-70.73613700000001,1.0,0.0,0.0,0.0,0.0,1.0
1200,Maine,Lewiston,46.4004089,-117.001189,2.0,0.0,0.0,4.0,2.0,8.0
1201,Maine,Lincoln,40.813616,-96.7025955,0.0,0.0,0.0,0.0,1.0,1.0
1202,Maine,Livermore Falls,44.4752929,-70.18808109999999,1.0,0.0,0.0,1.0,0.0,2.0
1203,Maine,Machias,44.71507889999999,-67.461376,0.0,0.0,0.0,0.0,0.0,0.0
1204,Maine,Mexico,23.634501,-102.552784,0.0,1.0,0.0,0.0,0.0,1.0
1205,Maine,Old Orchard Beach,43.5177659,-70.3772911,0.0,1.0,2.0,2.0,1.0,6.0
1206,Maine,Pittsfield,42.4500845,-73.2453824,2.0,0.0,0.0,0.0,0.0,2.0
1207,Maine,Portland,45.5230622,-122.6764815,2.0,1.0,0.0,1.0,6.0,10.0
1208,Maine,Rumford,41.8462161,-71.3557165,1.0,0.0,1.0,0.0,0.0,2.0
1209,Maine,Saco,43.5009176,-70.4428286,4.0,0.0,2.0,1.0,4.0,11.0
1210,Maine,Sanford,43.53364270000001,-96.742081,3.0,0.0,0.0,0.0,1.0,4.0
1211,Maine,Scarborough,54.283113,-0.399752,0.0,0.0,0.0,1.0,0.0,1.0
1212,Maine,Searsport,44.46393399999999,-68.90386269999999,0.0,0.0,1.0,0.0,0.0,1.0
1213,Maine,Skowhegan,44.76503659999999,-69.7193803,0.0,1.0,0.0,0.0,0.0,1.0
1214,Maine,South Portland,43.6414716,-70.2408811,0.0,1.0,1.0,1.0,0.0,3.0
1215,Maine,Topsham,43.9275435,-69.9759459,0.0,0.0,0.0,1.0,0.0,1.0
1216,Maine,University of Southern Maine,43.6622484,-70.2756936,0.0,0.0,0.0,0.0,4.0,4.0
1217,Maine,Waterville,44.5520105,-69.6317121,0.0,0.0,0.0,0.0,1.0,1.0
1218,Maine,Wells,37.693507,-97.2626093,0.0,0.0,0.0,0.0,0.0,0.0
1219,Maine,Westbrook,41.2959741,-72.4641563,0.0,0.0,1.0,0.0,0.0,1.0
1220,Maine,Wiscasset,44.0028921,-69.665583,0.0,1.0,1.0,0.0,0.0,2.0
1221,Maryland,Aberdeen,57.149717,-2.094278,0.0,0.0,0.0,0.0,0.0,0.0
1222,Maryland,Annapolis,38.9784453,-76.4921829,0.0,0.0,0.0,0.0,0.0,0.0
1223,Maryland,Baltimore,39.2903848,-76.6121893,1.0,1.0,2.0,1.0,1.0,6.0
1224,Maryland,Bel Air,34.1002455,-118.459463,0.0,1.0,0.0,0.0,0.0,1.0
1225,Maryland,Bowie,39.0067768,-76.77913649999999,1.0,0.0,0.0,0.0,0.0,1.0
1226,Maryland,Cambridge,52.205337,0.121817,1.0,0.0,1.0,0.0,0.0,2.0
1227,Maryland,Elkton,39.60677889999999,-75.83327179999999,1.0,0.0,0.0,0.0,0.0,1.0
1228,Maryland,Frederick,39.41426879999999,-77.4105409,0.0,2.0,0.0,1.0,0.0,3.0
1229,Maryland,Frostburg State University,39.6501666,-78.9341855,1.0,0.0,0.0,0.0,0.0,1.0
1230,Maryland,Greenbelt,39.0045544,-76.87552819999999,0.0,0.0,0.0,1.0,0.0,1.0
1231,Maryland,Laurel,37.2257372,-95.7255788,0.0,0.0,0.0,4.0,1.0,5.0
1232,Maryland,New Carrollton,38.9657249,-76.88024829999999,0.0,0.0,0.0,0.0,0.0,0.0
1233,Maryland,Salisbury,38.3606736,-75.5993692,0.0,0.0,2.0,0.0,0.0,2.0
1234,Maryland,St. Mary's College,37.8413472,-122.1101353,0.0,1.0,0.0,0.0,0.0,1.0
1235,Maryland,Thurmont,39.6237094,-77.41082010000001,0.0,0.0,1.0,0.0,0.0,1.0
1236,Maryland,Towson University,39.3925121,-76.61263919999999,1.0,1.0,0.0,0.0,0.0,2.0
1237,Maryland,"University of Maryland, College Park",38.9869183,-76.9425543,1.0,0.0,0.0,0.0,1.0,2.0
1238,Massachusetts,Acton,42.4850931,-71.43284,2.0,3.0,0.0,2.0,2.0,9.0
1239,Massachusetts,Agawam,42.0695391,-72.61481169999999,0.0,0.0,1.0,0.0,0.0,1.0
1240,Massachusetts,Amesbury,42.85839250000001,-70.93003759999999,1.0,0.0,0.0,2.0,0.0,3.0
1241,Massachusetts,Amherst,42.3732216,-72.5198537,1.0,1.0,2.0,0.0,6.0,10.0
1242,Massachusetts,Amherst,42.3732216,-72.5198537,1.0,3.0,2.0,0.0,6.0,12.0
1243,Massachusetts,Andover,42.6583356,-71.1367953,0.0,0.0,0.0,1.0,2.0,3.0
1244,Massachusetts,Arlington,38.8816208,-77.09098089999999,0.0,0.0,0.0,1.0,9.0,10.0
1245,Massachusetts,Assumption College,42.2947143,-71.8289631,0.0,0.0,0.0,0.0,0.0,0.0
1246,Massachusetts,Attleboro,41.94454409999999,-71.2856082,1.0,2.0,1.0,1.0,0.0,5.0
1247,Massachusetts,Barnstable,41.7003208,-70.3002024,6.0,0.0,2.0,1.0,0.0,9.0
1248,Massachusetts,Bedford,32.844017,-97.1430671,1.0,1.0,0.0,1.0,0.0,3.0
1249,Massachusetts,Belchertown,42.2770346,-72.4008884,1.0,0.0,0.0,0.0,0.0,1.0
1250,Massachusetts,Bellingham,48.7519112,-122.4786854,0.0,0.0,0.0,1.0,0.0,1.0
1251,Massachusetts,Belmont,36.1328981,-86.7940699,2.0,1.0,0.0,0.0,1.0,4.0
1252,Massachusetts,Bentley University,42.3856989,-71.22167999999999,0.0,0.0,0.0,0.0,0.0,0.0
1253,Massachusetts,Beverly,42.5584283,-70.880049,1.0,0.0,0.0,0.0,2.0,3.0
1254,Massachusetts,Billerica,42.5584218,-71.2689461,0.0,0.0,0.0,0.0,1.0,1.0
1255,Massachusetts,Bolton,53.57686469999999,-2.4282192,0.0,0.0,0.0,0.0,0.0,0.0
1256,Massachusetts,Boston,42.3600825,-71.0588801,61.0,88.0,50.0,81.0,75.0,355.0
1257,Massachusetts,Boston College,42.3355488,-71.16849450000001,0.0,0.0,0.0,0.0,0.0,0.0
1258,Massachusetts,Boston University,42.3504997,-71.1053991,0.0,1.0,3.0,3.0,5.0,12.0
1259,Massachusetts,Boxford,42.6611604,-70.996726,0.0,0.0,0.0,0.0,0.0,0.0
1260,Massachusetts,Braintree,42.2079017,-71.0040013,5.0,3.0,1.0,3.0,6.0,18.0
1261,Massachusetts,Brandeis University,42.364989,-71.258663,0.0,0.0,0.0,0.0,0.0,0.0
1262,Massachusetts,Bridgewater State University,41.9877398,-70.9660014,0.0,1.0,0.0,0.0,0.0,1.0
1263,Massachusetts,Bristol Community College,41.7205971,-71.1200645,0.0,0.0,0.0,1.0,1.0,2.0
1264,Massachusetts,Brockton,42.0834335,-71.0183787,0.0,0.0,0.0,0.0,0.0,0.0
1265,Massachusetts,Brookline,42.33176419999999,-71.1211635,0.0,0.0,1.0,0.0,0.0,1.0
1266,Massachusetts,Burlington,37.6780742,-97.2392359,0.0,0.0,0.0,0.0,0.0,0.0
1267,Massachusetts,Cambridge,52.205337,0.121817,4.0,7.0,5.0,10.0,16.0,42.0
1268,Massachusetts,Carver,36.175896,-95.985149,1.0,0.0,0.0,0.0,0.0,1.0
1269,Massachusetts,Charlton,42.13565,-71.970074,1.0,0.0,0.0,0.0,0.0,1.0
1270,Massachusetts,Chelmsford,42.5998139,-71.3672838,0.0,0.0,0.0,0.0,0.0,0.0
1271,Massachusetts,Chelsea,36.5411647,-95.4383596,0.0,1.0,0.0,0.0,0.0,1.0
1272,Massachusetts,Chicopee,42.1487043,-72.6078672,1.0,0.0,1.0,2.0,1.0,5.0
1273,Massachusetts,Clark University,42.2523452,-71.8246703,2.0,0.0,1.0,0.0,0.0,3.0
1274,Massachusetts,Cohasset,42.24176749999999,-70.8036544,0.0,0.0,1.0,0.0,1.0,2.0
1275,Massachusetts,Danvers,42.5750009,-70.93212199999999,6.0,0.0,0.0,2.0,0.0,8.0
1276,Massachusetts,Dartmouth,43.7044406,-72.2886935,0.0,0.0,0.0,0.0,1.0,1.0
1277,Massachusetts,Dean College,42.085449,-71.39839479999999,0.0,0.0,0.0,0.0,0.0,0.0
1278,Massachusetts,Deerfield,42.1711365,-87.8445119,0.0,0.0,0.0,0.0,0.0,0.0
1279,Massachusetts,Dennis,41.7353062,-70.1939429,0.0,0.0,0.0,0.0,2.0,2.0
1280,Massachusetts,Douglas,31.3445471,-109.5453447,0.0,0.0,0.0,0.0,0.0,0.0
1281,Massachusetts,Dover,51.1278758,1.3134027,0.0,0.0,0.0,0.0,0.0,0.0
1282,Massachusetts,Dracut,42.6703687,-71.3020052,1.0,4.0,0.0,0.0,0.0,5.0
1283,Massachusetts,Dudley,52.512255,-2.081112,0.0,0.0,0.0,0.0,0.0,0.0
1284,Massachusetts,East Longmeadow,42.0645396,-72.5125863,0.0,2.0,0.0,0.0,0.0,2.0
1285,Massachusetts,Easthampton,42.266757,-72.66897999999999,0.0,0.0,0.0,0.0,0.0,0.0
1286,Massachusetts,Edgartown,41.3890052,-70.5133599,0.0,1.0,1.0,0.0,0.0,2.0
1287,Massachusetts,Emerson College,42.3522216,-71.06581,0.0,1.0,0.0,1.0,0.0,2.0
1288,Massachusetts,Endicott College,42.5531918,-70.8408093,0.0,0.0,0.0,0.0,0.0,0.0
1289,Massachusetts,Everett,47.9789848,-122.2020795,2.0,0.0,1.0,2.0,7.0,12.0
1290,Massachusetts,Fall River,41.7014912,-71.1550451,0.0,1.0,3.0,0.0,0.0,4.0
1291,Massachusetts,Falmouth,41.5532208,-70.60858859999999,0.0,0.0,0.0,1.0,0.0,1.0
1292,Massachusetts,Fitchburg,42.5834228,-71.8022955,0.0,0.0,0.0,0.0,0.0,0.0
1293,Massachusetts,Framingham,42.279286,-71.4161565,1.0,2.0,0.0,0.0,3.0,6.0
1294,Massachusetts,Framingham State University,42.2981072,-71.436075,0.0,0.0,0.0,0.0,0.0,0.0
1295,Massachusetts,Freetown,8.4656765,-13.2317225,0.0,0.0,0.0,0.0,1.0,1.0
1296,Massachusetts,Gloucester,42.6159285,-70.6619888,0.0,0.0,0.0,0.0,0.0,0.0
1297,Massachusetts,Grafton,42.2070391,-71.6856236,0.0,0.0,0.0,0.0,0.0,0.0
1298,Massachusetts,Granby,40.086097,-105.9394597,0.0,0.0,0.0,1.0,0.0,1.0
1299,Massachusetts,Great Barrington,42.1959798,-73.362008,0.0,0.0,1.0,0.0,0.0,1.0
1300,Massachusetts,Greenfield,42.9614039,-88.0125865,0.0,0.0,0.0,0.0,0.0,0.0
1301,Massachusetts,Hadley,42.3417565,-72.58842220000001,1.0,0.0,0.0,0.0,0.0,1.0
1302,Massachusetts,Hampshire College,42.325559,-72.5322956,0.0,0.0,0.0,0.0,1.0,1.0
1303,Massachusetts,"Harbor Campus, Boston",42.3148413,-71.0367377,0.0,0.0,0.0,0.0,0.0,0.0
1304,Massachusetts,Harvard,42.3770029,-71.11666009999999,1.0,0.0,0.0,0.0,0.0,1.0
1305,Massachusetts,Haverhill,42.7762015,-71.0772796,4.0,4.0,3.0,2.0,3.0,16.0
1306,Massachusetts,Hingham,42.2418172,-70.889759,1.0,0.0,0.0,1.0,0.0,2.0
1307,Massachusetts,Holliston,42.20009659999999,-71.4245049,0.0,0.0,0.0,0.0,0.0,0.0
1308,Massachusetts,Hopkinton,42.22869540000001,-71.5225646,0.0,0.0,0.0,0.0,0.0,0.0
1309,Massachusetts,Hudson,42.2528649,-73.790959,0.0,0.0,0.0,0.0,0.0,0.0
1310,Massachusetts,Hull,53.7456709,-0.3367413,2.0,0.0,0.0,0.0,0.0,2.0
1311,Massachusetts,Kingston,51.41233,-0.300689,0.0,0.0,0.0,0.0,0.0,0.0
1312,Massachusetts,Lakeville,44.6496868,-93.24271999999999,0.0,0.0,0.0,0.0,0.0,0.0
1313,Massachusetts,Lancaster,40.0378755,-76.3055144,0.0,0.0,0.0,0.0,0.0,0.0
1314,Massachusetts,Lawrence,42.7070354,-71.1631137,0.0,0.0,0.0,0.0,0.0,0.0
1315,Massachusetts,Lenox,33.8462925,-84.3621419,0.0,0.0,0.0,0.0,0.0,0.0
1316,Massachusetts,Leominster,42.5250906,-71.759794,0.0,0.0,0.0,0.0,0.0,0.0
1317,Massachusetts,Lexington,38.0405837,-84.5037164,0.0,0.0,0.0,0.0,1.0,1.0
1318,Massachusetts,Lincoln,40.813616,-96.7025955,0.0,0.0,0.0,0.0,0.0,0.0
1319,Massachusetts,Longmeadow,42.0501022,-72.5828642,0.0,0.0,0.0,0.0,0.0,0.0
1320,Massachusetts,Lowell,42.6334247,-71.31617179999999,0.0,1.0,0.0,0.0,0.0,1.0
1321,Massachusetts,Ludlow,42.1600936,-72.47591899999999,1.0,0.0,0.0,1.0,0.0,2.0
1322,Massachusetts,Lunenburg,44.3770053,-64.3188354,0.0,1.0,0.0,0.0,0.0,1.0
1323,Massachusetts,Lynn,42.46676300000001,-70.9494938,3.0,7.0,6.0,7.0,5.0,28.0
1324,Massachusetts,Malden,42.4250964,-71.066163,1.0,1.0,4.0,1.0,1.0,8.0
1325,Massachusetts,Manchester-by-the-Sea,42.577834,-70.7675967,0.0,0.0,0.0,0.0,0.0,0.0
1326,Massachusetts,Mansfield,32.5631924,-97.1416768,1.0,0.0,0.0,0.0,1.0,2.0
1327,Massachusetts,Marblehead,42.49995819999999,-70.8578024,0.0,1.0,0.0,0.0,0.0,1.0
1328,Massachusetts,Marlborough,42.3459271,-71.5522874,0.0,1.0,1.0,0.0,0.0,2.0
1329,Massachusetts,Massachusetts College of Liberal Arts,42.691554,-73.1033372,1.0,0.0,0.0,0.0,0.0,1.0
1330,Massachusetts,Massachusetts Institute of Technology,42.360091,-71.09416,1.0,0.0,2.0,3.0,0.0,6.0
1331,Massachusetts,Massasoit Community College,42.0756099,-70.9902714,0.0,0.0,0.0,0.0,0.0,0.0
1332,Massachusetts,Mattapoisett,41.6616323,-70.81507420000001,0.0,0.0,1.0,0.0,1.0,2.0
1333,Massachusetts,Medford,42.3265152,-122.8755949,0.0,6.0,4.0,5.0,3.0,18.0
1334,Massachusetts,"Medical Center, Worcester",42.2592164,-71.8147905,0.0,0.0,0.0,0.0,1.0,1.0
1335,Massachusetts,Melrose,32.7200129,-96.8314791,0.0,0.0,0.0,0.0,0.0,0.0
1336,Massachusetts,Mendon,42.1056525,-71.5522859,1.0,0.0,0.0,0.0,0.0,1.0
1337,Massachusetts,Merrimac,42.8340582,-71.0005509,0.0,0.0,1.0,0.0,0.0,1.0
1338,Massachusetts,Methuen,42.7262016,-71.1908924,0.0,0.0,0.0,2.0,2.0,4.0
1339,Massachusetts,Middleboro,41.8929942,-70.9107708,0.0,1.0,0.0,1.0,0.0,2.0
1340,Massachusetts,Milford,41.2306979,-73.064036,0.0,0.0,0.0,1.0,1.0,2.0
1341,Massachusetts,Millbury,42.19207189999999,-71.761522,0.0,0.0,0.0,0.0,0.0,0.0
1342,Massachusetts,Millis,42.1669661,-71.351738,0.0,0.0,0.0,0.0,0.0,0.0
1343,Massachusetts,Milton,42.2495321,-71.0661653,0.0,1.0,0.0,0.0,1.0,2.0
1344,Massachusetts,Monson,42.1042451,-72.3189519,0.0,0.0,0.0,0.0,0.0,0.0
1345,Massachusetts,Montague,42.5355277,-72.5353437,1.0,0.0,0.0,0.0,0.0,1.0
1346,Massachusetts,Mount Holyoke College,42.2532535,-72.5761394,0.0,0.0,1.0,0.0,0.0,1.0
1347,Massachusetts,Nahant,42.4265633,-70.922279,0.0,0.0,0.0,1.0,1.0,2.0
1348,Massachusetts,Natick,42.2775281,-71.3468091,1.0,0.0,0.0,0.0,0.0,1.0
1349,Massachusetts,Needham,42.2809285,-71.23775479999999,0.0,2.0,1.0,0.0,0.0,3.0
1350,Massachusetts,New Bedford,41.6362152,-70.93420499999999,0.0,1.0,4.0,0.0,0.0,5.0
1351,Massachusetts,Newburyport,42.8125913,-70.87727509999999,0.0,0.0,0.0,0.0,1.0,1.0
